[
{"zone":"BAGATA","area":"BAGATA","village":"BAGATA MOKE","lon":17.908319,"lat":-3.729200},
{"zone":"BAGATA","area":"BAGATA","village":"Cité Bagata","lon":17.955820,"lat":-3.724470},
{"zone":"BAGATA","area":"BAGATA","village":"Ferme ELOLO","lon":17.938350,"lat":-3.563430},
{"zone":"BAGATA","area":"BAGATA","village":"Ferme MANZAW","lon":17.929190,"lat":-3.922060},
{"zone":"BAGATA","area":"BAGATA","village":"Ferme MUBILA","lon":18.030870,"lat":-3.566200},
{"zone":"BAGATA","area":"BAGATA","village":"Ferme MWALA","lon":18.011630,"lat":-3.560030},
{"zone":"BAGATA","area":"BAGATA","village":"MAKA","lon":17.928092,"lat":-3.708872},
{"zone":"BAGATA","area":"BAGATA","village":"MAMPO","lon":17.913651,"lat":-3.650054},
{"zone":"BAGATA","area":"BAGATA","village":"MBAYA ANTER","lon":18.022050,"lat":-3.749470},
{"zone":"BAGATA","area":"BAGATA","village":"MBAYA MASA","lon":18.017120,"lat":-3.760910},
{"zone":"BAGATA","area":"BAGATA","village":"MFUMUNTETE","lon":17.831590,"lat":-3.701420},
{"zone":"BAGATA","area":"BAGATA","village":"NKAYANKO","lon":18.047120,"lat":-3.590930},
{"zone":"BAGATA","area":"BANGUMI","village":"AVOCATIERS","lon":17.675400,"lat":-3.548270},
{"zone":"BAGATA","area":"BANGUMI","village":"BANGUMI I et II","lon":17.664600,"lat":-3.506460},
{"zone":"BAGATA","area":"BANGUMI","village":"BANGUMI I","lon":17.664600,"lat":-3.506460},
{"zone":"BAGATA","area":"BANGUMI","village":"BANGUMI II","lon":17.672560,"lat":-3.502510},
{"zone":"BAGATA","area":"BANGUMI","village":"BANGUMI II","lon":17.672560,"lat":-3.502510},
{"zone":"BAGATA","area":"BANGUMI","village":"BANGUMI III","lon":17.660601,"lat":-3.508780},
{"zone":"BAGATA","area":"BANGUMI","village":"BILENGA LENGA","lon":17.672470,"lat":-3.555590},
{"zone":"BAGATA","area":"BANGUMI","village":"BOSUKA","lon":17.756150,"lat":-3.370760},
{"zone":"BAGATA","area":"BANGUMI","village":"Ferme KISAKINDA","lon":17.812950,"lat":-3.406130},
{"zone":"BAGATA","area":"BANGUMI","village":"Ferme MBEN","lon":17.743030,"lat":-3.596640},
{"zone":"BAGATA","area":"BANGUMI","village":"Ferme NGOMFI","lon":17.676370,"lat":-3.555590},
{"zone":"BAGATA","area":"BANGUMI","village":"Ferme SELEMBAO","lon":17.674420,"lat":-3.572660},
{"zone":"BAGATA","area":"BANGUMI","village":"Ferme TIKABASEKA","lon":17.701120,"lat":-3.611270},
{"zone":"BAGATA","area":"BANGUMI","village":"ITO BANKENTO","lon":17.631399,"lat":-3.488690},
{"zone":"BAGATA","area":"BANGUMI","village":"KIMBANSEKE","lon":17.712420,"lat":-3.340320},
{"zone":"BAGATA","area":"BANGUMI","village":"KINKIAR","lon":17.792431,"lat":-3.501790},
{"zone":"BAGATA","area":"BANGUMI","village":"KISAKINDA","lon":17.812950,"lat":-3.406130},
{"zone":"BAGATA","area":"BANGUMI","village":"M'BAMPUTU","lon":17.730841,"lat":-3.585390},
{"zone":"BAGATA","area":"BANGUMI","village":"M'BAMPUTU","lon":17.730841,"lat":-3.585390},
{"zone":"BAGATA","area":"BANGUMI","village":"MBUNKIMI II","lon":17.634540,"lat":-3.534600},
{"zone":"BAGATA","area":"BANGUMI","village":"MBUNKIMI","lon":17.629120,"lat":-3.525740},
{"zone":"BAGATA","area":"BANGUMI","village":"MISAY","lon":17.625340,"lat":-3.512270},
{"zone":"BAGATA","area":"BANGUMI","village":"MPOKO","lon":17.653020,"lat":-3.580270},
{"zone":"BAGATA","area":"BANGUMI","village":"MUBENKIRI","lon":17.615570,"lat":-3.521750},
{"zone":"BAGATA","area":"BANGUMI","village":"MUTINI","lon":17.735460,"lat":-3.544580},
{"zone":"BAGATA","area":"BANGUMI","village":"MUTINI","lon":17.735460,"lat":-3.544580},
{"zone":"BAGATA","area":"BANGUMI","village":"NKUTU","lon":17.705839,"lat":-3.538030},
{"zone":"BAGATA","area":"BANGUMI","village":"NKUTU","lon":17.705840,"lat":-3.538030},
{"zone":"BAGATA","area":"BANGUMI","village":"SECTEUR BANGUMI","lon":17.639429,"lat":-3.502350},
{"zone":"BAGATA","area":"BANGUMI","village":"SECTEUR BANGUMI","lon":17.639429,"lat":-3.502350},
{"zone":"BAGATA","area":"BANGUMI","village":"SELEMBAO","lon":17.638650,"lat":-3.522710},
{"zone":"BAGATA","area":"BENO","village":"BENO","lon":17.790600,"lat":-3.601820},
{"zone":"BAGATA","area":"BENO","village":"BWALATILI","lon":17.831670,"lat":-3.629540},
{"zone":"BAGATA","area":"BENO","village":"Cité Bagata - Quartier Kivuvu","lon":17.955820,"lat":-3.724470},
{"zone":"BAGATA","area":"BENO","village":"Ferme KIMPAY","lon":17.594760,"lat":-3.513220},
{"zone":"BAGATA","area":"BENO","village":"KIMBWO","lon":17.746330,"lat":-3.768890},
{"zone":"BAGATA","area":"BENO","village":"MC Beno","lon":17.787160,"lat":-3.603961},
{"zone":"BAGATA","area":"BENO","village":"MOBEY","lon":17.779420,"lat":-3.639530},
{"zone":"BAGATA","area":"BENO","village":"MOYA","lon":17.787001,"lat":-3.632381},
{"zone":"BAGATA","area":"BENO","village":"MUBIMWEY","lon":17.749360,"lat":-3.719450},
{"zone":"BAGATA","area":"BENO","village":"MUBULU","lon":17.797270,"lat":-3.664300},
{"zone":"BAGATA","area":"BENO","village":"NSAY MOBEY","lon":17.744160,"lat":-3.607310},
{"zone":"BAGATA","area":"BENO","village":"SANTERE","lon":17.759670,"lat":-3.594300},
{"zone":"BAGATA","area":"BENO","village":"SANTERE","lon":17.759670,"lat":-3.594300},
{"zone":"BAGATA","area":"BENO","village":"TOMO","lon":17.767680,"lat":-3.691430},
{"zone":"BAGATA","area":"BENO","village":"WOY","lon":17.808990,"lat":-3.612420},
{"zone":"BAGATA","area":"BENO","village":"WOY","lon":17.808990,"lat":-3.612420},
{"zone":"BAGATA","area":"CAMP MPOKO","village":"Camp MPOKO","lon":18.138670,"lat":-3.458323},
{"zone":"BAGATA","area":"Camp Mpoko","village":"KINDO","lon":18.106780,"lat":-3.429790},
{"zone":"BAGATA","area":"CAMP MPOKO","village":"PINANGA BAC","lon":18.026127,"lat":-3.390799},
{"zone":"BAGATA","area":"Camp Mpoko","village":"Salaminta","lon":18.058492,"lat":-3.388815},
{"zone":"BAGATA","area":"KAMA","village":"KAMA MALU","lon":17.897700,"lat":-3.872740},
{"zone":"BAGATA","area":"KAMA","village":"MBALIBI","lon":17.842670,"lat":-3.901820},
{"zone":"BAGATA","area":"KAMA","village":"MBULI","lon":17.916670,"lat":-3.950000},
{"zone":"BAGATA","area":"KAMA","village":"MPENE","lon":17.919200,"lat":-3.890713},
{"zone":"BAGATA","area":"Kama","village":"Nsiku","lon":17.951895,"lat":-3.899347},
{"zone":"BAGATA","area":"KAMA","village":"NSINAMWE","lon":17.743510,"lat":-3.801818},
{"zone":"BAGATA","area":"KAMA","village":"NTOKY","lon":17.893061,"lat":-3.837790},
{"zone":"BAGATA","area":"Kama","village":"SABA","lon":17.902260,"lat":-3.788270},
{"zone":"BAGATA","area":"Kama","village":"SABA","lon":17.902260,"lat":-3.788270},
{"zone":"BAGATA","area":"KAMA","village":"WELE WELE I et II","lon":17.903509,"lat":-3.815670},
{"zone":"BAGATA","area":"KAMA","village":"WELE WELE I","lon":17.903509,"lat":-3.815670},
{"zone":"BAGATA","area":"KAMA","village":"WELE WELE II","lon":17.898251,"lat":-3.826770},
{"zone":"BAGATA","area":"Kibimi","village":"BONGALI","lon":17.935868,"lat":-3.414684},
{"zone":"BAGATA","area":"KIBIMI","village":"GABON","lon":18.024450,"lat":-3.554330},
{"zone":"BAGATA","area":"KIBIMI","village":"KIBIMI","lon":17.997940,"lat":-3.566030},
{"zone":"BAGATA","area":"Kibimi","village":"Maka","lon":18.008161,"lat":-3.652824},
{"zone":"BAGATA","area":"KIBIMI","village":"MPOKO","lon":18.058170,"lat":-3.560320},
{"zone":"BAGATA","area":"KIMBANDASAY","village":"BIMINA","lon":18.006100,"lat":-4.085970},
{"zone":"BAGATA","area":"KIMBANDASAY","village":"BWANZADI","lon":18.078710,"lat":-4.120980},
{"zone":"BAGATA","area":"KIMBANDASAY","village":"KINGWO","lon":18.207140,"lat":-4.192690},
{"zone":"BAGATA","area":"KIMBANDASAY","village":"KWO I","lon":18.040460,"lat":-4.104130},
{"zone":"BAGATA","area":"KIMBANDASAY","village":"KWO II","lon":18.035920,"lat":-4.102830},
{"zone":"BAGATA","area":"KIMBANDASAY","village":"LUKWEY","lon":18.083330,"lat":-4.150000},
{"zone":"BAGATA","area":"KIMBANDASAY","village":"MUKOBI","lon":18.117610,"lat":-4.161830},
{"zone":"BAGATA","area":"KIMBANDASAY","village":"NGIELE","lon":18.052780,"lat":-4.105420},
{"zone":"BAGATA","area":"KIMBANDASAY","village":"NGUMINA","lon":18.113070,"lat":-4.017250},
{"zone":"BAGATA","area":"KIMBANDASAY","village":"NZOKIA","lon":18.135110,"lat":-4.048370},
{"zone":"BAGATA","area":"KINSHU","village":"MUSEBUDI","lon":17.729740,"lat":-4.037950},
{"zone":"BAGATA","area":"KINSU","village":"KINSU","lon":17.732820,"lat":-4.053390},
{"zone":"BAGATA","area":"LUFIMPA","village":"LUFIMPA","lon":17.718820,"lat":-4.083350},
{"zone":"BAGATA","area":"MANTIENE","village":"MANTIENE","lon":17.715180,"lat":-3.815580},
{"zone":"BAGATA","area":"MANTIENE","village":"MBALIBI","lon":17.663580,"lat":-3.781000},
{"zone":"BAGATA","area":"MANTIENE","village":"MULIR","lon":17.719230,"lat":-3.798130},
{"zone":"BAGATA","area":"MANTIENE","village":"NGALANA","lon":17.836350,"lat":-3.787900},
{"zone":"BAGATA","area":"MANTIENE","village":"NGIEY","lon":17.632110,"lat":-3.750690},
{"zone":"BAGATA","area":"MANTIENE","village":"NTETE","lon":17.707690,"lat":-3.803290},
{"zone":"BAGATA","area":"MANTIENE","village":"NTOLONKUBI","lon":17.658630,"lat":-3.777450},
{"zone":"BAGATA","area":"MANZASAY","village":"BUNSIE","lon":17.561420,"lat":-3.940560},
{"zone":"BAGATA","area":"MANZASAY","village":"KIMBUMA I","lon":17.609180,"lat":-3.880620},
{"zone":"BAGATA","area":"MANZASAY","village":"KINKAMO I","lon":17.698830,"lat":-3.896260},
{"zone":"BAGATA","area":"MANZASAY","village":"MANZASAY","lon":17.660840,"lat":-3.922000},
{"zone":"BAGATA","area":"MANZASAY","village":"MBAYA BIDIAR","lon":17.720470,"lat":-3.882440},
{"zone":"BAGATA","area":"MANZASAY","village":"MBAYA NKOLENGWAN","lon":17.748619,"lat":-3.892790},
{"zone":"BAGATA","area":"MANZASAY","village":"NSALA","lon":17.527020,"lat":-3.651470},
{"zone":"BAGATA","area":"MANZASAY","village":"SHIE","lon":17.716670,"lat":-3.966670},
{"zone":"BAGATA","area":"MBANSAMBA","village":"KISAMBA","lon":17.693790,"lat":-4.179260},
{"zone":"BAGATA","area":"MBANSAMBA","village":"MBANSAMBA","lon":17.694794,"lat":-4.094322},
{"zone":"BAGATA","area":"MBANSAMBA","village":"MBWALA","lon":17.681250,"lat":-4.115857},
{"zone":"BAGATA","area":"MBANZALUTE","village":"MAMWELE","lon":17.852400,"lat":-4.172320},
{"zone":"BAGATA","area":"MBANZALUTE","village":"MBANZALUTE","lon":17.724170,"lat":-4.067040},
{"zone":"BAGATA","area":"MBAYA LAREME","village":"KINDAMBWINI","lon":18.071710,"lat":-3.886870},
{"zone":"BAGATA","area":"MBAYA LAREME","village":"KITAKANENE","lon":18.126800,"lat":-3.924820},
{"zone":"BAGATA","area":"MBAYA LAREME","village":"MBAYA KITAKANENE","lon":18.203840,"lat":-3.862300},
{"zone":"BAGATA","area":"MBAYA LAREME","village":"Mbaya Larème","lon":18.180358,"lat":-3.860817},
{"zone":"BAGATA","area":"MBAYA LAREME","village":"MBAYA NSAKA","lon":18.153303,"lat":-3.859552},
{"zone":"BAGATA","area":"MBAYA LAREME","village":"MWABALA","lon":18.183090,"lat":-3.881110},
{"zone":"BAGATA","area":"MBAYA LAREME","village":"NKENENE I","lon":18.120740,"lat":-3.918450},
{"zone":"BAGATA","area":"MBAYA LAREME","village":"NKENENE II","lon":18.150000,"lat":-3.916670},
{"zone":"BAGATA","area":"MBAYA LAREME","village":"POSTE NSAKA","lon":18.183330,"lat":-3.850000},
{"zone":"BAGATA","area":"MOTERENSIENE","village":"BUBA","lon":18.066670,"lat":-3.933330},
{"zone":"BAGATA","area":"MOTERENSIENE","village":"Ferme NZALALA","lon":18.055480,"lat":-3.935230},
{"zone":"BAGATA","area":"MOTERENSIENE","village":"KIMBOKO","lon":18.162000,"lat":-4.034650},
{"zone":"BAGATA","area":"MOTERENSIENE","village":"KIMIA","lon":18.129090,"lat":-3.959200},
{"zone":"BAGATA","area":"MOTERENSIENE","village":"LWANO","lon":18.034027,"lat":-3.932740},
{"zone":"BAGATA","area":"MOTERENSIENE","village":"MANGANANGANA","lon":18.162850,"lat":-3.818060},
{"zone":"BAGATA","area":"MOTERENSIENE","village":"MOTERENSIENE","lon":18.072110,"lat":-3.985370},
{"zone":"BAGATA","area":"MOTERENSIENE","village":"MPANA BEACH","lon":18.050000,"lat":-3.866670},
{"zone":"BAGATA","area":"MOTERENSIENE","village":"MPANA MOKE","lon":18.052130,"lat":-3.842350},
{"zone":"BAGATA","area":"MOTERENSIENE","village":"NGWALANI","lon":18.062230,"lat":-3.957180},
{"zone":"BAGATA","area":"MOTERENSIENE","village":"WEBE","lon":18.190140,"lat":-4.010320},
{"zone":"BAGATA","area":"MOTERENSIENE","village":"WUBA I","lon":18.000000,"lat":-3.983330},
{"zone":"BAGATA","area":"MOTERENSIENE","village":"WUBA II","lon":18.000000,"lat":-3.933330},
{"zone":"BAGATA","area":"MUBIMWEY","village":"NSALAKIA MOKE","lon":17.759290,"lat":-3.752610},
{"zone":"BAGATA","area":"MUBIMWEY","village":"NSALAKIA MONENE","lon":17.721920,"lat":-3.755420},
{"zone":"BAGATA","area":"MUKUY","village":"KINDONGO","lon":17.533330,"lat":-3.900000},
{"zone":"BAGATA","area":"MUKUY","village":"MUKUY","lon":17.844480,"lat":-3.966600},
{"zone":"BAGATA","area":"MUKUY","village":"MULOLO","lon":17.880230,"lat":-3.977680},
{"zone":"BAGATA","area":"MUSHUNI","village":"KIBALALULI","lon":17.973740,"lat":-4.169370},
{"zone":"BAGATA","area":"MUSHUNI","village":"KIBWADI","lon":17.993900,"lat":-4.198650},
{"zone":"BAGATA","area":"MUSHUNI","village":"KINU","lon":17.989580,"lat":-4.103610},
{"zone":"BAGATA","area":"MUSHUNI","village":"MIKIAKA MUTOMBO","lon":17.877400,"lat":-4.383080},
{"zone":"BAGATA","area":"MUSHUNI","village":"Mobey - Mushuni","lon":17.869740,"lat":-4.390730},
{"zone":"BAGATA","area":"MUSHUNI","village":"MUSHUNI PORT","lon":17.956490,"lat":-4.210610},
{"zone":"BAGATA","area":"MUSHUNI","village":"MUSHUNI VILLAGE","lon":17.921040,"lat":-4.196650},
{"zone":"BAGATA","area":"MUSHUNI","village":"MUTINGUNU","lon":17.943940,"lat":-4.262420},
{"zone":"BAGATA","area":"MUSHUNI","village":"NGELEWE","lon":17.983330,"lat":-4.166670},
{"zone":"BAGATA","area":"MUSHUNI","village":"NTALAMBALA","lon":17.922680,"lat":-4.138050},
{"zone":"BAGATA","area":"MUSHUNI","village":"NTOMOLOMBO","lon":17.966670,"lat":-4.133330},
{"zone":"BAGATA","area":"Ndana","village":"KISAMBO","lon":17.683435,"lat":-4.110151},
{"zone":"BAGATA","area":"NDANA","village":"LUIE","lon":17.716670,"lat":-4.033330},
{"zone":"BAGATA","area":"NDANA","village":"MBAYA MBIMI","lon":17.766670,"lat":-3.916670},
{"zone":"BAGATA","area":"NDANA","village":"MBAYA NSAKANSIA","lon":17.789410,"lat":-3.936800},
{"zone":"BAGATA","area":"NDANA","village":"MBIMI NDANA","lon":17.739409,"lat":-4.003545},
{"zone":"BAGATA","area":"NDANA","village":"MUNANA","lon":17.802650,"lat":-3.941830},
{"zone":"BAGATA","area":"NDANA","village":"NDANA KIMFUMU","lon":17.753346,"lat":-3.991502},
{"zone":"BAGATA","area":"NDANA","village":"NDANA SCIERIE","lon":17.709010,"lat":-4.015800},
{"zone":"BAGATA","area":"NTA","village":"KINSHU","lon":17.877540,"lat":-4.169530},
{"zone":"BAGATA","area":"NTA","village":"Kinsu Kinkwa","lon":17.831018,"lat":-4.076357},
{"zone":"BAGATA","area":"NTA","village":"NKWE","lon":17.903711,"lat":-4.027102},
{"zone":"BAGATA","area":"NTA","village":"NSANKAY","lon":17.903000,"lat":-4.092540},
{"zone":"BAGATA","area":"NTA","village":"NTA I","lon":17.966670,"lat":-4.066670},
{"zone":"BAGATA","area":"NTA","village":"NTA II","lon":17.933330,"lat":-4.066670},
{"zone":"BAGATA","area":"NTA","village":"ZUMANZO","lon":17.903840,"lat":-4.067570},
{"zone":"BAGATA","area":"NTOBER","village":"BABA","lon":18.102812,"lat":-3.798301},
{"zone":"BAGATA","area":"NTOBER","village":"KINGABWA","lon":18.079900,"lat":-3.794050},
{"zone":"BAGATA","area":"NTOBER","village":"LWONO","lon":18.263000,"lat":-3.664600},
{"zone":"BAGATA","area":"NTOBER","village":"MANKOLO","lon":18.089670,"lat":-3.800270},
{"zone":"BAGATA","area":"NTOBER","village":"MBANKENE","lon":18.079180,"lat":-3.683650},
{"zone":"BAGATA","area":"Ntober","village":"Mbeni","lon":18.258548,"lat":-3.784636},
{"zone":"BAGATA","area":"NTOBER","village":"MFUBAKWAN","lon":18.100340,"lat":-3.804710},
{"zone":"BAGATA","area":"NTOBER","village":"MOPOYONGO","lon":18.226880,"lat":-3.742380},
{"zone":"BAGATA","area":"NTOBER","village":"MPANI I","lon":18.109720,"lat":-3.807480},
{"zone":"BAGATA","area":"NTOBER","village":"MPANI II","lon":18.116670,"lat":-3.816670},
{"zone":"BAGATA","area":"NTOBER","village":"MUKUBI","lon":18.065740,"lat":-3.771280},
{"zone":"BAGATA","area":"NTOBER","village":"MUKUTU I","lon":18.234794,"lat":-3.764888},
{"zone":"BAGATA","area":"NTOBER","village":"MUWAKA","lon":18.095480,"lat":-3.815350},
{"zone":"BAGATA","area":"NTOBER","village":"NGELEMALITA","lon":18.202922,"lat":-3.809550},
{"zone":"BAGATA","area":"NTOBER","village":"NSALA","lon":18.101040,"lat":-3.792190},
{"zone":"BAGATA","area":"NTOBER","village":"NTALAMALITA","lon":18.207990,"lat":-3.800260},
{"zone":"BAGATA","area":"NTOBER","village":"SECTEUR KWILU NTOBER","lon":18.208860,"lat":-3.774190},
{"zone":"BAGATA","area":"SAMPIERE","village":"BUKUMBI","lon":17.841181,"lat":-3.593200},
{"zone":"BAGATA","area":"SAMPIERE","village":"BUKUMBI","lon":17.841181,"lat":-3.593200},
{"zone":"BAGATA","area":"SAMPIERE","village":"SAMPIERE II","lon":17.885380,"lat":-3.579120},
{"zone":"BAGATA","area":"SAMPIERE","village":"SAMPIERE","lon":17.897320,"lat":-3.574550},
{"zone":"BAGATA","area":"SAMPIERE","village":"SAMPIERE","lon":17.897320,"lat":-3.574550},
{"zone":"BAGATA","area":"SIEME SIEME","village":"SIEME SIEME","lon":17.877910,"lat":-3.739050},
{"zone":"BANDJOW MOKE","area":"","village":"BESAW","lon":17.818030,"lat":-2.002230},
{"zone":"BANDJOW MOKE","area":"","village":"BOONGO 1","lon":17.683330,"lat":-1.783330},
{"zone":"BANDJOW MOKE","area":"","village":"ILOBO","lon":17.833330,"lat":-1.633330},
{"zone":"BANDJOW MOKE","area":"BANDJOW MOKE","village":"BANDJOW MOKE","lon":17.330050,"lat":-1.853280},
{"zone":"BANDJOW MOKE","area":"BANDJOW MOKE","village":"BONKONTOKILI","lon":18.283330,"lat":-1.650000},
{"zone":"Bandjow Moke","area":"Bandjow Moke","village":"BOONGO 2","lon":17.633330,"lat":-1.833330},
{"zone":"Bandjow Moke","area":"Bandjow Moke","village":"BOONGO 3","lon":17.651420,"lat":-1.819110},
{"zone":"BANDJOW MOKE","area":"BANDJOW MOKE","village":"BOYANDO","lon":17.533330,"lat":-1.833330},
{"zone":"BANDJOW MOKE","area":"BANDJOW MOKE","village":"NSANGE MPENGE","lon":17.519310,"lat":-1.854500},
{"zone":"Bandjow Moke","area":"Basimba","village":"Iyanza","lon":17.716667,"lat":-1.683333},
{"zone":"Bandjow Moke","area":"Basimba","village":"Masimba","lon":17.700000,"lat":-1.666667},
{"zone":"Bandjow Moke","area":"Boondo","village":"BILOBI","lon":17.450000,"lat":-1.816670},
{"zone":"BANDJOW MOKE","area":"GOMELENGE","village":"BONKOLENKOLE","lon":17.538280,"lat":-1.953680},
{"zone":"BANDJOW MOKE","area":"MEKIRI","village":"MEKIRI","lon":17.800000,"lat":-1.766670},
{"zone":"BANDJOW MOKE","area":"MPENGE","village":"MPENGE","lon":17.683330,"lat":-1.733330},
{"zone":"BANDJOW MOKE","area":"NDANDEMPENGE","village":"Wanga","lon":17.450000,"lat":-1.650000},
{"zone":"Bandjow Moke","area":"Ngomelenge","village":"Bombanda","lon":17.473820,"lat":-2.014099},
{"zone":"BANDJOW MOKE","area":"NGOMELENGE","village":"NGOMELENGE","lon":17.481450,"lat":-2.001070},
{"zone":"BANDJOW MOKE","area":"NTANDENGOMO","village":"NTANDENGOMO","lon":17.416670,"lat":-2.050000},
{"zone":"BANDJOW MOKE","area":"NTUMBE","village":"NTUMBE","lon":17.683330,"lat":-1.833330},
{"zone":"BANDUNDU","area":"BASOKO","village":"NGANDAMBO","lon":17.347589,"lat":-3.316850},
{"zone":"BANDUNDU","area":"BASOKO","village":"NGANDAMBO","lon":17.347589,"lat":-3.316850},
{"zone":"BANDUNDU","area":"BASOKO","village":"Ville Bandundu","lon":17.380711,"lat":-3.318960},
{"zone":"BANDUNDU","area":"BASOKO","village":"WOMBALI","lon":17.369820,"lat":-3.275850},
{"zone":"BANDUNDU","area":"BEKANE","village":"BEKANE I","lon":17.499020,"lat":-3.659730},
{"zone":"BANDUNDU","area":"BEKANE","village":"BEKANE II","lon":17.459770,"lat":-3.672350},
{"zone":"BANDUNDU","area":"BEKANE","village":"Ferme LUMBUY","lon":17.390051,"lat":-3.606510},
{"zone":"BANDUNDU","area":"BEKANE","village":"Ferme MUBENDWO","lon":17.495660,"lat":-3.698060},
{"zone":"BANDUNDU","area":"BEKANE","village":"Ferme NTOLUZINGU","lon":17.441640,"lat":-3.650640},
{"zone":"BANDUNDU","area":"BEKANE","village":"MAKU MAKU","lon":17.408991,"lat":-3.627530},
{"zone":"BANDUNDU","area":"BEKANE","village":"MAKU MAKU","lon":17.408991,"lat":-3.627530},
{"zone":"BANDUNDU","area":"BEKANE","village":"MPIE","lon":17.440029,"lat":-3.644490},
{"zone":"BANDUNDU","area":"BEKANE","village":"MPIE","lon":17.440029,"lat":-3.644490},
{"zone":"BANDUNDU","area":"BEKANE","village":"NSAKIEY","lon":17.523319,"lat":-3.667540},
{"zone":"BANDUNDU","area":"BEKANE","village":"NSAKIEY","lon":17.523319,"lat":-3.667540},
{"zone":"BANDUNDU","area":"BEKANE","village":"NSIMUKUNI","lon":17.498131,"lat":-3.679460},
{"zone":"BANDUNDU","area":"CAMP BANKU","village":"Camp BANKU","lon":17.262051,"lat":-3.417050},
{"zone":"BANDUNDU","area":"CAMP BANKU","village":"Ferme KIMBWELE II","lon":17.220039,"lat":-3.614390},
{"zone":"BANDUNDU","area":"CAMP BANKU","village":"Ferme MILARO","lon":17.255060,"lat":-3.368420},
{"zone":"BANDUNDU","area":"CAMP BANKU","village":"KIMBWELE","lon":17.219940,"lat":-3.555480},
{"zone":"BANDUNDU","area":"CAMP BANKU","village":"KIMPINI","lon":17.262341,"lat":-3.417190},
{"zone":"BANDUNDU","area":"CAMP BANKU","village":"MILARO","lon":18.208390,"lat":-3.756410},
{"zone":"BANDUNDU","area":"CAMP BANKU","village":"NGALIEM","lon":17.290939,"lat":-3.325960},
{"zone":"BANDUNDU","area":"KIKIOR","village":"KIKIOR","lon":17.573111,"lat":-3.690010},
{"zone":"BANDUNDU","area":"KIKIOR","village":"KIMPAY","lon":17.663990,"lat":-3.689900},
{"zone":"BANDUNDU","area":"KIKIOR","village":"MATIALA","lon":17.547680,"lat":-3.666070},
{"zone":"BANDUNDU","area":"KIKIOR","village":"MATIALA","lon":17.547680,"lat":-3.666070},
{"zone":"BANDUNDU","area":"KIKIOR","village":"MBANSAMBA","lon":17.573130,"lat":-3.679680},
{"zone":"BANDUNDU","area":"KIKIOR","village":"MOWA","lon":17.596880,"lat":-3.718530},
{"zone":"BANDUNDU","area":"KIKIOR","village":"MOWA","lon":17.596880,"lat":-3.718530},
{"zone":"BANDUNDU","area":"KIKIOR","village":"TWANE","lon":17.539709,"lat":-3.747140},
{"zone":"BANDUNDU","area":"KIKIOR","village":"TWANE","lon":17.539709,"lat":-3.747140},
{"zone":"BANDUNDU","area":"LUMBU","village":"LUMBU","lon":17.482491,"lat":-3.274560},
{"zone":"BANDUNDU","area":"Malebo","village":"Ito Iliama","lon":17.491487,"lat":-3.348847},
{"zone":"BANDUNDU","area":"Malebo","village":"ITO MISSION","lon":17.513800,"lat":-3.366200},
{"zone":"BANDUNDU","area":"MATAMBA","village":"Ferme KWILU","lon":17.543360,"lat":-3.528080},
{"zone":"BANDUNDU","area":"MATAMBA","village":"Ferme LEBIL","lon":17.462130,"lat":-3.471070},
{"zone":"BANDUNDU","area":"MATAMBA","village":"Ferme LIMETE","lon":17.326080,"lat":-3.586420},
{"zone":"BANDUNDU","area":"MATAMBA","village":"Ferme LISALA","lon":17.567150,"lat":-3.530670},
{"zone":"BANDUNDU","area":"MATAMBA","village":"Ferme MATADI","lon":17.543301,"lat":-3.480790},
{"zone":"BANDUNDU","area":"MATAMBA","village":"Ferme MOLENDE","lon":17.437590,"lat":-3.477510},
{"zone":"BANDUNDU","area":"MATAMBA","village":"Ferme TEMBE","lon":17.220360,"lat":-3.365550},
{"zone":"BANDUNDU","area":"MATAMBA","village":"Kimbimbi","lon":17.539789,"lat":-3.513650},
{"zone":"BANDUNDU","area":"MATAMBA","village":"KUKI II","lon":17.532681,"lat":-3.489860},
{"zone":"BANDUNDU","area":"MATAMBA","village":"LETIERE","lon":17.548679,"lat":-3.598650},
{"zone":"BANDUNDU","area":"MATAMBA","village":"MATAMBA","lon":17.528681,"lat":-3.504430},
{"zone":"BANDUNDU","area":"MATAMBA","village":"MATAMBA","lon":17.528681,"lat":-3.504430},
{"zone":"BANDUNDU","area":"MATAMBA","village":"MATAMBA","lon":17.528681,"lat":-3.504430},
{"zone":"BANDUNDU","area":"MATAMBA","village":"MITIENE","lon":17.544390,"lat":-3.603240},
{"zone":"BANDUNDU","area":"MATAMBA","village":"NKANSALA","lon":17.517559,"lat":-3.455020},
{"zone":"BANDUNDU","area":"MATAMBA","village":"NKANSALA","lon":17.517559,"lat":-3.455020},
{"zone":"BANDUNDU","area":"MUSHIE PENTANE","village":"BOKA","lon":17.569521,"lat":-3.390470},
{"zone":"BANDUNDU","area":"MUSHIE PENTANE","village":"BONKULU","lon":17.581160,"lat":-3.394700},
{"zone":"BANDUNDU","area":"MUSHIE PENTANE","village":"BONZILI I","lon":17.519199,"lat":-3.435940},
{"zone":"BANDUNDU","area":"MUSHIE PENTANE","village":"BONZILI II","lon":17.496599,"lat":-3.456400},
{"zone":"BANDUNDU","area":"MUSHIE PENTANE","village":"Camp YOLO/Monday","lon":17.570740,"lat":-3.320220},
{"zone":"BANDUNDU","area":"MUSHIE PENTANE","village":"ELIAMA","lon":17.494431,"lat":-3.356710},
{"zone":"BANDUNDU","area":"MUSHIE PENTANE","village":"Ferme MALEBO II","lon":17.602840,"lat":-3.475540},
{"zone":"BANDUNDU","area":"MUSHIE PENTANE","village":"Ferme SAIBA","lon":17.638820,"lat":-3.498210},
{"zone":"BANDUNDU","area":"MUSHIE PENTANE","village":"Ito Mbaya","lon":17.534749,"lat":-3.378939},
{"zone":"BANDUNDU","area":"MUSHIE PENTANE","village":"ITO","lon":17.513800,"lat":-3.366200},
{"zone":"BANDUNDU","area":"MUSHIE PENTANE","village":"MBAYA","lon":17.534830,"lat":-3.379100},
{"zone":"BANDUNDU","area":"MUSHIE PENTANE","village":"MONDAI","lon":17.577780,"lat":-3.311070},
{"zone":"BANDUNDU","area":"MUSHIE PENTANE","village":"MUSHIE PENTANE CENTRE","lon":17.613701,"lat":-3.425130},
{"zone":"BANDUNDU","area":"MUSHIE PENTANE","village":"MUSHIE PENTANE CENTRE","lon":17.613701,"lat":-3.425130},
{"zone":"BANDUNDU","area":"MUSHIE PENTANE","village":"MUSHIE PENTANE VILLAGE","lon":17.603960,"lat":-3.440250},
{"zone":"BANDUNDU","area":"NDIKA NDIKA","village":"BOBALA","lon":17.399441,"lat":-3.429030},
{"zone":"BANDUNDU","area":"NDIKA NDIKA","village":"BOMPEY","lon":17.288651,"lat":-3.522230},
{"zone":"BANDUNDU","area":"NDIKA NDIKA","village":"BUTOBO","lon":17.286869,"lat":-3.516300},
{"zone":"BANDUNDU","area":"NDIKA NDIKA","village":"Ferme BANKAY","lon":17.383220,"lat":-3.447230},
{"zone":"BANDUNDU","area":"NDIKA NDIKA","village":"Ferme BONNE ANNEE","lon":17.371130,"lat":-3.581360},
{"zone":"BANDUNDU","area":"NDIKA NDIKA","village":"Ferme GBADO","lon":17.436060,"lat":-3.440550},
{"zone":"BANDUNDU","area":"NDIKA NDIKA","village":"Ferme KIBAKU KUBI","lon":17.385030,"lat":-3.501540},
{"zone":"BANDUNDU","area":"NDIKA NDIKA","village":"Ferme KIKASA","lon":17.429530,"lat":-3.522640},
{"zone":"BANDUNDU","area":"NDIKA NDIKA","village":"Ferme LEBELE","lon":17.442810,"lat":-3.383920},
{"zone":"BANDUNDU","area":"NDIKA NDIKA","village":"Ferme LEPWABA","lon":17.308620,"lat":-3.572660},
{"zone":"BANDUNDU","area":"NDIKA NDIKA","village":"Ferme LUBWA","lon":17.365910,"lat":-3.637500},
{"zone":"BANDUNDU","area":"NDIKA NDIKA","village":"Ferme LUKWAYA","lon":17.340590,"lat":-3.423080},
{"zone":"BANDUNDU","area":"NDIKA NDIKA","village":"Ferme MAKA","lon":17.362480,"lat":-3.441220},
{"zone":"BANDUNDU","area":"NDIKA NDIKA","village":"Ferme MATAMANKO","lon":17.337270,"lat":-3.424410},
{"zone":"BANDUNDU","area":"NDIKA NDIKA","village":"Ferme MOOR","lon":17.445030,"lat":-3.452700},
{"zone":"BANDUNDU","area":"NDIKA NDIKA","village":"Ferme MUSAMBANDEKE","lon":17.330750,"lat":-3.627520},
{"zone":"BANDUNDU","area":"NDIKA NDIKA","village":"Ferme PASCAL","lon":17.335350,"lat":-3.594520},
{"zone":"BANDUNDU","area":"NDIKA NDIKA","village":"Ferme TANKWEY","lon":17.363411,"lat":-3.564820},
{"zone":"BANDUNDU","area":"NDIKA NDIKA","village":"Ferme TIKA BASALA","lon":17.266860,"lat":-3.352940},
{"zone":"BANDUNDU","area":"NDIKA NDIKA","village":"KEMPINI","lon":17.285770,"lat":-3.588250},
{"zone":"BANDUNDU","area":"NDIKA NDIKA","village":"KIMBANDA","lon":17.365801,"lat":-3.520810},
{"zone":"BANDUNDU","area":"NDIKA NDIKA","village":"LIMETE","lon":17.326160,"lat":-3.586310},
{"zone":"BANDUNDU","area":"NDIKA NDIKA","village":"LUMBUY","lon":17.390169,"lat":-3.606490},
{"zone":"BANDUNDU","area":"NDIKA NDIKA","village":"Mbali","lon":17.344830,"lat":-3.617960},
{"zone":"BANDUNDU","area":"NDIKA NDIKA","village":"MITI MITI","lon":17.277630,"lat":-3.496800},
{"zone":"BANDUNDU","area":"NDIKA NDIKA","village":"MITI MITI","lon":17.277630,"lat":-3.496800},
{"zone":"BANDUNDU","area":"NDIKA NDIKA","village":"MUKWEME","lon":17.282200,"lat":-3.473280},
{"zone":"BANDUNDU","area":"NDIKA NDIKA","village":"MUKWEME","lon":17.282200,"lat":-3.473280},
{"zone":"BANDUNDU","area":"NDIKA NDIKA","village":"NDIKA NDIKA","lon":17.391211,"lat":-3.469950},
{"zone":"BANDUNDU","area":"NDIKA NDIKA","village":"NGAMUNGWA","lon":17.316469,"lat":-3.555490},
{"zone":"BANDUNDU","area":"NDIKA NDIKA","village":"NGAMUNGWA","lon":17.316469,"lat":-3.555490},
{"zone":"BANDUNDU","area":"NDIKA NDIKA","village":"NGILA","lon":17.306829,"lat":-3.579370},
{"zone":"BANDUNDU","area":"NDIKA NDIKA","village":"NGILA","lon":17.306829,"lat":-3.579370},
{"zone":"BANDUNDU","area":"NDIKA NDIKA","village":"NKOWA","lon":17.331181,"lat":-3.634150},
{"zone":"BANDUNDU","area":"NDIKA NDIKA","village":"NKOWA","lon":17.331181,"lat":-3.634150},
{"zone":"BANDUNDU","area":"NDIKA NDIKA","village":"NSELE","lon":17.315290,"lat":-3.560030},
{"zone":"BANDUNDU","area":"NDIKA NDIKA","village":"NSELE","lon":17.315290,"lat":-3.560030},
{"zone":"BANDUNDU","area":"NGIEVUO","village":"BUNGU BUNGU","lon":17.466670,"lat":-3.250000},
{"zone":"BELEMBE","area":"BELEMBE","village":"NKILINKILI","lon":18.246850,"lat":-2.670770},
{"zone":"BELINDA","area":"BELINDA","village":"BOKWANKOSO","lon":19.516670,"lat":-3.233330},
{"zone":"BENDELA","area":"BENDELA","village":"NDAME","lon":17.566670,"lat":-3.266670},
{"zone":"BIEN","area":"BIEN","village":"SEDJON","lon":17.966670,"lat":-3.316670},
{"zone":"BIEN","area":"BIEN","village":"SEKO","lon":18.050000,"lat":-3.366670},
{"zone":"BILILI ETAT","area":"BILILI ETAT","village":"CONGO MWANA","lon":18.381940,"lat":-4.376010},
{"zone":"BISENGO","area":"BISENGO","village":"Ferme KOTA-OKE","lon":16.292000,"lat":-3.186610},
{"zone":"BISENGO","area":"BISENGO","village":"Ferme MUZALE","lon":16.356410,"lat":-3.211330},
{"zone":"BISENGO","area":"BISENGO","village":"Ferme SAMUKOLO","lon":16.272440,"lat":-3.190170},
{"zone":"BISENGO","area":"BISENGO","village":"NSELE","lon":16.400110,"lat":-3.260740},
{"zone":"BISENGO","area":"NKANA","village":"Ferme TAMU","lon":15.930810,"lat":-3.931410},
{"zone":"BISIALA","area":"BISIALA","village":"BINTONE","lon":17.115480,"lat":-3.760670},
{"zone":"BISIALA","area":"BISIALA","village":"DILALA","lon":17.215349,"lat":-3.664760},
{"zone":"BOKALA","area":"BOKALA","village":"Ferme 40 MAISON","lon":17.174030,"lat":-3.164350},
{"zone":"BOKO","area":"BUKANGA LONZO","village":"BANGOY","lon":16.787690,"lat":-4.813010},
{"zone":"BOKO","area":"BUKANGA LONZO","village":"BITARI LONZO","lon":16.683330,"lat":-4.716670},
{"zone":"BOKO","area":"BUKANGA LONZO","village":"BUKANGA VILLAGE","lon":16.766670,"lat":-4.733330},
{"zone":"BOKO","area":"BUKANGA LONZO","village":"Ferme MBANZA BANGOY","lon":16.781090,"lat":-4.875320},
{"zone":"BOKO","area":"BUKANGA LONZO","village":"KABWANGA","lon":16.787350,"lat":-4.777910},
{"zone":"BOKO","area":"BUKANGA LONZO","village":"KAKINGA","lon":16.783330,"lat":-4.633330},
{"zone":"BOKO","area":"BUKANGA LONZO","village":"KIKOTA","lon":16.779000,"lat":-4.727110},
{"zone":"BOKO","area":"BUKANGA LONZO","village":"KIKUMBI","lon":16.806140,"lat":-4.755640},
{"zone":"BOKO","area":"BUKANGA LONZO","village":"KIKUWA BITARI","lon":16.866670,"lat":-4.416670},
{"zone":"BOKO","area":"BUKANGA LONZO","village":"KINKAMBA","lon":16.793610,"lat":-4.735460},
{"zone":"BOKO","area":"BUKANGA LONZO","village":"KISOSI","lon":16.766670,"lat":-4.633330},
{"zone":"BOKO","area":"BUKANGA LONZO","village":"MAMBODI","lon":16.778300,"lat":-4.836350},
{"zone":"BOKO","area":"BUKANGA LONZO","village":"MANGANDU","lon":16.816670,"lat":-4.633330},
{"zone":"BOKO","area":"BUKANGA LONZO","village":"MBANGI LONZO","lon":16.772040,"lat":-4.845400},
{"zone":"BOKO","area":"BUKANGA LONZO","village":"MBARINGA BOMBO","lon":16.662110,"lat":-4.729200},
{"zone":"BOKO","area":"BUKANGA LONZO","village":"MBARINGA LUKUBA","lon":16.609920,"lat":-4.735460},
{"zone":"BOKO","area":"BUKANGA LONZO","village":"MBARINGA MBANGI","lon":16.692720,"lat":-4.726420},
{"zone":"BOKO","area":"BUKANGA LONZO","village":"MULOPO BUKANGA","lon":16.752560,"lat":-4.735460},
{"zone":"BOKO","area":"BUKANGA LONZO","village":"MULOPO MBARINGA","lon":16.710120,"lat":-4.729900},
{"zone":"BOKO","area":"BUKANGA LONZO","village":"NSEDI MWEDI","lon":16.810310,"lat":-4.425830},
{"zone":"BOKO","area":"DINGA","village":"BOKO MISSION","lon":16.766670,"lat":-5.316670},
{"zone":"BOKO","area":"DINGA","village":"DINGA","lon":16.566670,"lat":-5.316670},
{"zone":"BOKO","area":"DINGA","village":"INGUBU","lon":16.561930,"lat":-5.394820},
{"zone":"BOKO","area":"DINGA","village":"INIANGI","lon":16.586230,"lat":-5.179840},
{"zone":"BOKO","area":"DINGA","village":"INZADI","lon":16.510400,"lat":-5.293220},
{"zone":"BOKO","area":"DINGA","village":"IYIMBI NZAU","lon":16.497140,"lat":-5.286590},
{"zone":"BOKO","area":"DINGA","village":"KIZIMA","lon":16.486100,"lat":-5.285860},
{"zone":"BOKO","area":"DINGA","village":"MASALA YALAMA","lon":16.472850,"lat":-5.281440},
{"zone":"BOKO","area":"DINGA","village":"MBAHU ZILEBA","lon":16.545000,"lat":-5.348440},
{"zone":"BOKO","area":"DINGA","village":"MUYALALA","lon":16.545730,"lat":-5.136410},
{"zone":"BOKO","area":"FAPELO","village":"KIBOMBO","lon":17.602510,"lat":-4.571810},
{"zone":"BOKO","area":"KASANDJI (D1)","village":"FANGULU MITABU","lon":16.900000,"lat":-4.383330},
{"zone":"BOKO","area":"KASANDJI (D1)","village":"Ferme KIVAMULEKE","lon":16.994590,"lat":-4.711130},
{"zone":"BOKO","area":"KASANDJI (D1)","village":"Ferme MATABA KASANDJI","lon":16.982280,"lat":-4.629380},
{"zone":"BOKO","area":"KASANDJI (D1)","village":"Ferme NZETE","lon":17.010350,"lat":-4.630850},
{"zone":"BOKO","area":"KASANDJI (D1)","village":"ITSONA","lon":17.000430,"lat":-4.637100},
{"zone":"BOKO","area":"KASANDJI (D1)","village":"KABAKA","lon":16.950000,"lat":-4.583330},
{"zone":"BOKO","area":"KASANDJI (D1)","village":"KAKANA","lon":16.952200,"lat":-4.513200},
{"zone":"BOKO","area":"KASANDJI (D1)","village":"KALENGA","lon":16.883330,"lat":-4.500000},
{"zone":"BOKO","area":"KASANDJI (D1)","village":"KASANDJI I","lon":17.017130,"lat":-4.579680},
{"zone":"BOKO","area":"KASANDJI (D1)","village":"KIKONGILA","lon":16.995580,"lat":-4.646120},
{"zone":"BOKO","area":"KASANDJI (D1)","village":"Kisuana","lon":16.966670,"lat":-4.583330},
{"zone":"BOKO","area":"Kasandji (D1)","village":"Kiteke","lon":17.048610,"lat":-4.549870},
{"zone":"BOKO","area":"KASANDJI (D1)","village":"KITSONGO","lon":16.800000,"lat":-4.516670},
{"zone":"BOKO","area":"KASANDJI (D1)","village":"KULUMBIMBI","lon":16.978340,"lat":-4.460460},
{"zone":"BOKO","area":"KASANDJI (D1)","village":"MAKIESE MINU","lon":17.036450,"lat":-4.591460},
{"zone":"BOKO","area":"KASANDJI (D1)","village":"MBUNGU","lon":17.045320,"lat":-4.594900},
{"zone":"BOKO","area":"KASANDJI (D1)","village":"MOTETE","lon":16.987920,"lat":-4.530150},
{"zone":"BOKO","area":"KASANDJI (D1)","village":"Mulopo Luaka","lon":17.001279,"lat":-4.572824},
{"zone":"BOKO","area":"KASANDJI (D1)","village":"MUPEPE","lon":17.046500,"lat":-4.602680},
{"zone":"BOKO","area":"KASANDJI (D1)","village":"MUTETE","lon":16.925160,"lat":-4.571270},
{"zone":"BOKO","area":"KASANDJI (D1)","village":"NAKANZITA","lon":16.934020,"lat":-4.574710},
{"zone":"BOKO","area":"KASANDJI (D1)","village":"PEKA LELO","lon":16.944360,"lat":-4.576190},
{"zone":"BOKO","area":"KASANDJI (D1)","village":"TANDUDI","lon":17.083330,"lat":-4.550000},
{"zone":"BOKO","area":"KASANDJI (D1)","village":"Tangombe","lon":17.100000,"lat":-4.550000},
{"zone":"BOKO","area":"KASANDJI (D1)","village":"TAYANA NZADI","lon":16.965540,"lat":-4.463420},
{"zone":"BOKO","area":"KASANDJI (D2)","village":"KASANDJI II","lon":17.030510,"lat":-4.588290},
{"zone":"BOKO","area":"KASANDJI","village":"FWAPASI","lon":16.992620,"lat":-4.719000},
{"zone":"BOKO","area":"KASANDJI","village":"Kinsiona","lon":17.031740,"lat":-4.730590},
{"zone":"BOKO","area":"KASANDJI","village":"LUNGISA","lon":16.977360,"lat":-4.656460},
{"zone":"BOKO","area":"KASINSI","village":"INKODIA","lon":16.841530,"lat":-5.144010},
{"zone":"BOKO","area":"KASINSI","village":"KASINSI MISSION CATHOLIQUE","lon":16.833330,"lat":-5.266670},
{"zone":"BOKO","area":"KASINSI","village":"NGANDA KUKI","lon":16.854770,"lat":-5.205180},
{"zone":"BOKO","area":"KITATI","village":"BANGOY MFULULU","lon":16.934740,"lat":-4.947240},
{"zone":"BOKO","area":"KITATI","village":"BUKONDI","lon":16.839080,"lat":-4.921830},
{"zone":"BOKO","area":"KITATI","village":"KABWANGE","lon":16.830510,"lat":-4.914980},
{"zone":"BOKO","area":"KITATI","village":"KASONGO DINGA","lon":16.900000,"lat":-4.983330},
{"zone":"BOKO","area":"KITATI","village":"KASONGO YUNGU I","lon":16.900000,"lat":-4.916670},
{"zone":"BOKO","area":"KITATI","village":"KAWUMBA","lon":16.922740,"lat":-4.887570},
{"zone":"BOKO","area":"KITATI","village":"Kenge II","lon":16.817880,"lat":-5.075270},
{"zone":"BOKO","area":"KITATI","village":"KIKEKETE","lon":16.923030,"lat":-4.869010},
{"zone":"BOKO","area":"KITATI","village":"KILUTU FIOTI","lon":16.864780,"lat":-5.002350},
{"zone":"BOKO","area":"KITATI","village":"KIMBELO","lon":16.897620,"lat":-4.814180},
{"zone":"BOKO","area":"KITATI","village":"KIMBINDA","lon":16.965290,"lat":-4.853590},
{"zone":"BOKO","area":"KITATI","village":"KINDONGOLOSO","lon":16.862680,"lat":-4.730220},
{"zone":"BOKO","area":"KITATI","village":"KINGUNDU","lon":16.879000,"lat":-5.046950},
{"zone":"BOKO","area":"KITATI","village":"KINKINDI","lon":16.839650,"lat":-5.051750},
{"zone":"BOKO","area":"KITATI","village":"KINSWANGA","lon":16.944400,"lat":-4.938680},
{"zone":"BOKO","area":"KITATI","village":"KINTSANZA","lon":16.954440,"lat":-4.930110},
{"zone":"BOKO","area":"KITATI","village":"KIPESE","lon":16.853360,"lat":-5.022050},
{"zone":"BOKO","area":"KITATI","village":"KIPOLONGO","lon":16.770270,"lat":-4.854440},
{"zone":"BOKO","area":"KITATI","village":"KIPUNGU","lon":16.907320,"lat":-4.930400},
{"zone":"BOKO","area":"KITATI","village":"KITATI CS","lon":16.872200,"lat":-4.976940},
{"zone":"BOKO","area":"KITATI","village":"KITATI VILLAGE","lon":16.897850,"lat":-4.972820},
{"zone":"BOKO","area":"KITATI","village":"KIZOLELE","lon":16.921890,"lat":-4.844170},
{"zone":"BOKO","area":"KITATI","village":"LONZO MISSION CATHOLIQUE","lon":16.832290,"lat":-4.735060},
{"zone":"BOKO","area":"KITATI","village":"MAKIKU","lon":17.033330,"lat":-5.516670},
{"zone":"BOKO","area":"KITATI","village":"MALUBU","lon":16.927600,"lat":-4.961230},
{"zone":"BOKO","area":"KITATI","village":"MANGUNGU","lon":16.800000,"lat":-5.100000},
{"zone":"BOKO","area":"KITATI","village":"MAWANA","lon":16.916670,"lat":-4.900000},
{"zone":"BOKO","area":"KITATI","village":"MBALAKA","lon":16.794540,"lat":-4.891850},
{"zone":"BOKO","area":"KITATI","village":"MBINDA NZADI","lon":16.904750,"lat":-4.836740},
{"zone":"BOKO","area":"KITATI","village":"NSINGA","lon":16.902180,"lat":-4.827600},
{"zone":"BOKO","area":"KITATI","village":"PININGOMBE","lon":16.911890,"lat":-4.844740},
{"zone":"BOKO","area":"MBINDA TSEKE","village":"CERCLE","lon":16.804100,"lat":-4.662070},
{"zone":"BOKO","area":"MBINDA TSEKE","village":"Ferme BOLINGO","lon":16.810570,"lat":-4.671240},
{"zone":"BOKO","area":"MBINDA TSEKE","village":"Ferme MUKUWA","lon":16.817580,"lat":-4.677710},
{"zone":"BOKO","area":"MBINDA TSEKE","village":"IKAKALA PARIS","lon":16.820280,"lat":-4.517520},
{"zone":"BOKO","area":"MBINDA TSEKE","village":"KIAMFU KINZADI","lon":16.822440,"lat":-4.760770},
{"zone":"BOKO","area":"MBINDA TSEKE","village":"KILUTU I","lon":16.802480,"lat":-4.768320},
{"zone":"BOKO","area":"MBINDA TSEKE","village":"KIMWANDA","lon":16.789540,"lat":-4.767240},
{"zone":"BOKO","area":"MBINDA TSEKE","village":"KISANGU","lon":16.777130,"lat":-4.706300},
{"zone":"BOKO","area":"MBINDA TSEKE","village":"KITSONA","lon":16.844550,"lat":-4.682020},
{"zone":"BOKO","area":"MBINDA TSEKE","village":"KITUMBU","lon":16.854260,"lat":-4.676630},
{"zone":"BOKO","area":"MBINDA TSEKE","village":"KODIPWANGA","lon":16.830530,"lat":-4.695510},
{"zone":"BOKO","area":"MBINDA TSEKE","village":"MANOKANA","lon":16.904420,"lat":-4.695510},
{"zone":"BOKO","area":"MBINDA TSEKE","village":"MBINDA II","lon":16.794390,"lat":-4.699820},
{"zone":"BOKO","area":"MBINDA TSEKE","village":"MBINDA TSEKE","lon":16.833330,"lat":-4.700000},
{"zone":"BOKO","area":"MBINDA TSEKE","village":"MOYEN VILLE","lon":16.858570,"lat":-4.711150},
{"zone":"BOKO","area":"MBINDA TSEKE","village":"NDJILI MUKUKULU","lon":16.820280,"lat":-4.699280},
{"zone":"BOKO","area":"MBINDA TSEKE","village":"PUKU WAMBA","lon":16.934730,"lat":-4.747920},
{"zone":"BOKO","area":"MBINDA TSEKE","village":"TIABAKWENO","lon":16.842930,"lat":-4.699280},
{"zone":"BOKO","area":"MBINDA TSEKE","village":"TSAKALA MUTOMBO","lon":16.840230,"lat":-4.722480},
{"zone":"BOKO","area":"MUTOMBO","village":"IPOLONGO","lon":16.781111,"lat":-4.820000},
{"zone":"BOKO","area":"MUTOMBO","village":"KINKABA","lon":16.794930,"lat":-4.702520},
{"zone":"BOKO","area":"MUTOMBO","village":"MUTOMBO","lon":16.773889,"lat":-4.851111},
{"zone":"BOKO","area":"PONT KWANGO","village":"BILOLO","lon":18.477110,"lat":-4.704250},
{"zone":"BOKO","area":"PONT KWANGO","village":"Ferme KIKUBUKUBU","lon":16.520640,"lat":-4.743090},
{"zone":"BOKO","area":"PONT KWANGO","village":"Ferme RANCHA LARA","lon":16.382600,"lat":-4.594890},
{"zone":"BOKO","area":"PONT KWANGO","village":"KABUBA","lon":16.433330,"lat":-4.683330},
{"zone":"BOKO","area":"PONT KWANGO","village":"KAFULU","lon":16.500000,"lat":-4.666670},
{"zone":"BOKO","area":"PONT KWANGO","village":"KIMBARINGA MAMBIENE","lon":16.411400,"lat":-4.627070},
{"zone":"BOKO","area":"PONT KWANGO","village":"KIMWANGA","lon":16.516410,"lat":-4.713450},
{"zone":"BOKO","area":"PONT KWANGO","village":"KINZWANGA","lon":16.550000,"lat":-4.600000},
{"zone":"BOKO","area":"PONT KWANGO","village":"KIPAPA","lon":16.377520,"lat":-4.744790},
{"zone":"BOKO","area":"PONT KWANGO","village":"KIPASI","lon":16.400390,"lat":-4.743090},
{"zone":"BOKO","area":"PONT KWANGO","village":"KIPULUMBA","lon":16.524030,"lat":-4.739700},
{"zone":"BOKO","area":"PONT KWANGO","village":"LUZOLO","lon":16.572300,"lat":-4.815080},
{"zone":"BOKO","area":"PONT KWANGO","village":"MILENDE","lon":16.546050,"lat":-4.671960},
{"zone":"BOKO","area":"PONT KWANGO","village":"MITIMITANU","lon":17.066630,"lat":-4.309280},
{"zone":"BOKO","area":"PONT KWANGO","village":"MUKWAKASA","lon":16.590090,"lat":-4.741400},
{"zone":"BOKO","area":"PONT KWANGO","village":"MUSINGA","lon":17.033550,"lat":-4.778450},
{"zone":"BOKO","area":"PONT KWANGO","village":"PONT KWANGO","lon":16.552150,"lat":-4.745040},
{"zone":"BOKO","area":"PONT KWANGO","village":"TSAKALA MAHINZI","lon":16.479150,"lat":-4.702440},
{"zone":"BOKO","area":"TAKUNDI","village":"BOKORITO","lon":16.531950,"lat":-4.745050},
{"zone":"BOKO","area":"TAKUNDI","village":"Ferme NZIMBA","lon":16.556340,"lat":-4.770820},
{"zone":"BOKO","area":"TAKUNDI","village":"Ferme TALANGAI","lon":16.556800,"lat":-4.760700},
{"zone":"BOKO","area":"TAKUNDI","village":"KANIMBU","lon":16.546220,"lat":-4.647490},
{"zone":"BOKO","area":"TAKUNDI","village":"KANIMBU","lon":16.560940,"lat":-4.797520},
{"zone":"BOKO","area":"TAKUNDI","village":"KIKUBI","lon":16.500000,"lat":-4.800000},
{"zone":"BOKO","area":"TAKUNDI","village":"Kimwela","lon":16.568770,"lat":-4.765760},
{"zone":"BOKO","area":"TAKUNDI","village":"KINZIMA","lon":16.535170,"lat":-4.746430},
{"zone":"BOKO","area":"TAKUNDI","village":"KISIENI","lon":16.531490,"lat":-4.746890},
{"zone":"BOKO","area":"TAKUNDI","village":"KIZOLELE MUKUKULU","lon":16.576590,"lat":-4.728940},
{"zone":"BOKO","area":"TAKUNDI","village":"MABINZI","lon":16.533330,"lat":-4.752880},
{"zone":"BOKO","area":"TAKUNDI","village":"MAKILIYO","lon":16.559100,"lat":-4.699950},
{"zone":"BOKO","area":"TAKUNDI","village":"MATOSI","lon":16.562320,"lat":-4.798440},
{"zone":"BOKO","area":"TAKUNDI","village":"MAWANA","lon":16.530570,"lat":-4.734010},
{"zone":"BOKO","area":"TAKUNDI","village":"MFULU KAPATA","lon":16.477180,"lat":-4.726640},
{"zone":"BOKO","area":"TAKUNDI","village":"MIWANGI","lon":16.571070,"lat":-4.672340},
{"zone":"BOKO","area":"TAKUNDI","village":"MUKASI","lon":16.631360,"lat":-4.731710},
{"zone":"BOKO","area":"TAKUNDI","village":"MUKUKULU KASONGO","lon":16.563150,"lat":-4.729240},
{"zone":"BOKO","area":"TAKUNDI","village":"MUKUKULU KONDOKONDO","lon":16.556960,"lat":-4.723050},
{"zone":"BOKO","area":"TAKUNDI","village":"MUKUKULU MUVUMA","lon":16.567390,"lat":-4.725260},
{"zone":"BOKO","area":"TAKUNDI","village":"MUKUKULU MUZANGI","lon":16.578890,"lat":-4.746890},
{"zone":"BOKO","area":"TAKUNDI","village":"MUKUKULU","lon":16.584070,"lat":-4.723880},
{"zone":"BOKO","area":"TAKUNDI","village":"MUKULA MUKUKULU","lon":16.562320,"lat":-4.710080},
{"zone":"BOKO","area":"TAKUNDI","village":"MUWAWA","lon":16.584410,"lat":-4.702250},
{"zone":"BOKO","area":"TAKUNDI","village":"SAKABANA TASUNDI","lon":16.510320,"lat":-4.721580},
{"zone":"BOKO","area":"TAKUNDI","village":"TADIKA","lon":16.488230,"lat":-4.730790},
{"zone":"BOKO","area":"TAKUNDI","village":"TAKUNDI","lon":16.569690,"lat":-4.746890},
{"zone":"BOKO","area":"TAKUNDI","village":"TAMUMBANDA","lon":16.533330,"lat":-4.816670},
{"zone":"BOKO","area":"TAKUNDI","village":"Tangombe","lon":16.566670,"lat":-4.783330},
{"zone":"BOKO","area":"TAKUNDI","village":"TASUNDI","lon":16.504800,"lat":-4.710540},
{"zone":"BOKO","area":"TSAKALA MBEWO","village":"KIMPATI MFULULA","lon":16.878950,"lat":-4.985230},
{"zone":"BOKO","area":"TSAKALA MBEWO","village":"KIMWADI","lon":16.880680,"lat":-4.974300},
{"zone":"BOKO","area":"TSAKALA MBEWO","village":"KINGALA LONZO","lon":16.776550,"lat":-5.045630},
{"zone":"BOKO","area":"TSAKALA MBEWO","village":"KIPESI MASEKI","lon":16.908870,"lat":-5.030670},
{"zone":"BOKO","area":"TSAKALA MBEWO","village":"KIPOLONGO ANTENNE","lon":16.922100,"lat":-4.907570},
{"zone":"BOKO","area":"TSAKALA MBEWO","village":"MABAKA","lon":16.904260,"lat":-5.187150},
{"zone":"BOKO","area":"TSAKALA MBEWO","village":"MAKASA MUNDUNDU","lon":16.846160,"lat":-4.894910},
{"zone":"BOKO","area":"TSAKALA MBEWO","village":"MANZASI","lon":16.969270,"lat":-5.028370},
{"zone":"BOKO","area":"TSAKALA MBEWO","village":"TSAKALA KENIA","lon":16.858400,"lat":-5.147700},
{"zone":"BOKOLI","area":"BOKOLI","village":"MOBOKO","lon":16.796980,"lat":-2.033560},
{"zone":"BOKORO","area":"BIEN","village":"BIEN","lon":18.163480,"lat":-3.438720},
{"zone":"BOKORO","area":"BIEN","village":"KESE AMONT","lon":18.112520,"lat":-3.404620},
{"zone":"BOKORO","area":"BIEN","village":"KESE","lon":18.090630,"lat":-3.398960},
{"zone":"BOKORO","area":"BIEN","village":"KIBAMBILI","lon":18.165060,"lat":-3.431340},
{"zone":"BOKORO","area":"BIEN","village":"MAKAYA","lon":18.025430,"lat":-3.376500},
{"zone":"BOKORO","area":"BIEN","village":"NSILO","lon":18.172620,"lat":-3.418370},
{"zone":"BOKORO","area":"BIEN","village":"SEDJON","lon":18.089757,"lat":-3.376368},
{"zone":"BOKORO","area":"BOKORO","village":"Cité Bokoro","lon":18.363260,"lat":-2.863840},
{"zone":"BOKORO","area":"BOKUNGU","village":"Ferme BOSEKI","lon":18.828030,"lat":-2.768730},
{"zone":"BOKORO","area":"BOMO","village":"BOMO","lon":18.366660,"lat":-2.861900},
{"zone":"BOKORO","area":"BOTEMOLA","village":"ILOMONKITA","lon":18.716670,"lat":-2.566670},
{"zone":"BOKORO","area":"BOYON","village":"BOYON","lon":18.049860,"lat":-3.050150},
{"zone":"BOKORO","area":"BOYON","village":"KEBALEBA","lon":18.041550,"lat":-3.034190},
{"zone":"BOKORO","area":"BOYON","village":"NSONTIN","lon":17.991133,"lat":-3.160935},
{"zone":"BOKORO","area":"BOYON","village":"Seketwa","lon":18.374600,"lat":-3.351810},
{"zone":"BOKORO","area":"BOYON","village":"SEMANA","lon":18.043970,"lat":-3.108700},
{"zone":"BOKORO","area":"CITE SEMENDUA + MISSION","village":"Cité Semendua","lon":18.116580,"lat":-3.233750},
{"zone":"BOKORO","area":"CITE SEMENDUA + MISSION","village":"IPAY","lon":17.983879,"lat":-3.230285},
{"zone":"BOKORO","area":"CITE SEMENDUA + MISSION","village":"MPAA","lon":18.008170,"lat":-3.274790},
{"zone":"BOKORO","area":"CITE SEMENDUA + MISSION","village":"SEMAMBAU","lon":18.227470,"lat":-3.064540},
{"zone":"BOKORO","area":"CITE SEMENDUA + MISSION","village":"SEMAMPIA","lon":18.173620,"lat":-3.150260},
{"zone":"Bokoro","area":"Duma","village":"Duma","lon":18.593972,"lat":-2.878092},
{"zone":"BOKORO","area":"EVUNA","village":"IVUNA","lon":18.583330,"lat":-2.816670},
{"zone":"BOKORO","area":"IBAA (D1)","village":"IBAA","lon":18.316670,"lat":-2.766670},
{"zone":"BOKORO","area":"IBAA (D1)","village":"WENZE","lon":18.291630,"lat":-2.758650},
{"zone":"BOKORO","area":"ILOMBE","village":"BEMFUKA","lon":18.179840,"lat":-3.009240},
{"zone":"BOKORO","area":"ILOMBE","village":"IBEE","lon":18.206120,"lat":-2.906960},
{"zone":"Bokoro","area":"Ilombe","village":"Ikuma","lon":18.329434,"lat":-2.864881},
{"zone":"BOKORO","area":"ILOMBE","village":"ILOMBE","lon":18.242518,"lat":-2.839312},
{"zone":"BOKORO","area":"ILOMBE","village":"ISHO","lon":18.181200,"lat":-2.754320},
{"zone":"BOKORO","area":"ILOMBE","village":"LENKO","lon":18.182171,"lat":-2.953677},
{"zone":"BOKORO","area":"ILOMBE","village":"MOSEDJON","lon":18.330630,"lat":-2.835260},
{"zone":"BOKORO","area":"ILOMBE","village":"MPIANKANI","lon":18.203980,"lat":-2.827100},
{"zone":"BOKORO","area":"ILOMBE","village":"NKUISHIN","lon":18.273040,"lat":-2.896470},
{"zone":"BOKORO","area":"ILOMBE","village":"NTALE","lon":18.213130,"lat":-2.918370},
{"zone":"BOKORO","area":"ILOMBE","village":"SEMAMPOY","lon":18.283330,"lat":-2.933330},
{"zone":"BOKORO","area":"ILOMBE","village":"SEMBINI","lon":18.266670,"lat":-2.900000},
{"zone":"BOKORO","area":"IPEKE","village":"IPEKE","lon":18.257794,"lat":-2.380317},
{"zone":"BOKORO","area":"ISAKA MBOLE","village":"DODOMA","lon":17.932040,"lat":-3.366030},
{"zone":"BOKORO","area":"ISAKA MBOLE","village":"ISAKA MBOLE","lon":17.946033,"lat":-3.397734},
{"zone":"BOKORO","area":"ISAKA MBOLE","village":"IZANGANI","lon":17.972400,"lat":-3.381270},
{"zone":"BOKORO","area":"ISAKA MBOLE","village":"ONANKIE","lon":17.903820,"lat":-3.188190},
{"zone":"BOKORO","area":"KEMBA LELAW","village":"KEBINSA","lon":18.302580,"lat":-3.097280},
{"zone":"BOKORO","area":"KEMBA LELAW","village":"KEMBA LELAW","lon":18.445650,"lat":-2.587510},
{"zone":"BOKORO","area":"KEMBA","village":"KEMBA","lon":18.420450,"lat":-3.170310},
{"zone":"BOKORO","area":"KEMPA","village":"KEMPA","lon":18.373016,"lat":-2.963200},
{"zone":"BOKORO","area":"KEMPILI","village":"ILEE","lon":17.950000,"lat":-2.250000},
{"zone":"BOKORO","area":"KEMPIMPI","village":"IBAN","lon":18.308438,"lat":-3.000670},
{"zone":"Bokoro","area":"Kempimpi","village":"Ilombe - Moke","lon":18.237654,"lat":-3.092134},
{"zone":"BOKORO","area":"KEMPIMPI","village":"KEMPIMPI","lon":18.296450,"lat":-3.026460},
{"zone":"Bokoro","area":"Kempimpi","village":"Mapwo","lon":18.228838,"lat":-3.112424},
{"zone":"BOKORO","area":"KEMPIMPI","village":"NSEMPILA","lon":18.415320,"lat":-3.141140},
{"zone":"BOKORO","area":"KEMPIMPI","village":"SELEMBILI","lon":18.267300,"lat":-3.000830},
{"zone":"Bokoro","area":"Kempimpi","village":"Wangili","lon":18.266047,"lat":-3.055440},
{"zone":"BOKORO","area":"KUTU CENTRALE","village":"KEMPILI","lon":18.123830,"lat":-2.728090},
{"zone":"BOKORO","area":"KUTU CENTRALE","village":"LONKESA","lon":18.180880,"lat":-2.675270},
{"zone":"BOKORO","area":"LUMUMBA+CENTRALE+BASIKI","village":"Cité Kutu","lon":18.147560,"lat":-2.724900},
{"zone":"BOKORO","area":"Luna","village":"Ipoku II","lon":18.878950,"lat":-2.777840},
{"zone":"BOKORO","area":"MAKAW","village":"Makaw","lon":18.321180,"lat":-3.480080},
{"zone":"BOKORO","area":"MAKAW","village":"SELESA","lon":18.366670,"lat":-3.333330},
{"zone":"BOKORO","area":"MASSAMBA","village":"EBEMVU","lon":18.710671,"lat":-3.026042},
{"zone":"BOKORO","area":"MOKILA","village":"BOKWE","lon":18.251930,"lat":-3.370620},
{"zone":"BOKORO","area":"MOKILA","village":"MOKILA","lon":18.248880,"lat":-3.412050},
{"zone":"BOKORO","area":"MOKILA","village":"NHUNG","lon":18.181120,"lat":-3.415090},
{"zone":"BOKORO","area":"MOKILA","village":"SELEKEY","lon":18.201300,"lat":-3.364839},
{"zone":"BOKORO","area":"MOKILA","village":"SEMAFUNI","lon":18.252780,"lat":-3.381610},
{"zone":"BOKORO","area":"MOKILA","village":"SEMOKI","lon":18.333330,"lat":-3.350000},
{"zone":"BOKORO","area":"MOTANGIRI","village":"MOTANGIRI","lon":18.482450,"lat":-2.927220},
{"zone":"BOKORO","area":"MOTANGIRI","village":"MUNTU","lon":18.436520,"lat":-2.885570},
{"zone":"BOKORO","area":"NSEKESILI","village":"MASAKO","lon":18.361915,"lat":-3.011613},
{"zone":"BOKORO","area":"NSEKESILI","village":"SEKESIRI","lon":18.582550,"lat":-3.209430},
{"zone":"BOKORO","area":"NSEKESILI","village":"Semokaw","lon":18.433333,"lat":-2.950000},
{"zone":"BOKORO","area":"NZAMPIE","village":"BOTOKO","lon":18.083330,"lat":-2.833330},
{"zone":"BOKORO","area":"NZAMPIE","village":"IKOKO","lon":18.083330,"lat":-2.916670},
{"zone":"BOKORO","area":"NZAMPIE","village":"INUNU","lon":18.016670,"lat":-2.800000},
{"zone":"BOKORO","area":"NZAMPIE","village":"MBAN","lon":18.029100,"lat":-2.818850},
{"zone":"BOKORO","area":"NZAMPIE","village":"MBWUAN","lon":18.015900,"lat":-2.878290},
{"zone":"BOKORO","area":"NZAMPIE","village":"MOSEDJAN","lon":17.953780,"lat":-2.897930},
{"zone":"BOKORO","area":"NZAMPIE","village":"MOSHEMINE","lon":18.100000,"lat":-2.800000},
{"zone":"BOKORO","area":"NZAMPIE","village":"MPUI","lon":18.002630,"lat":-2.855190},
{"zone":"BOKORO","area":"NZAMPIE","village":"NZAMPIE","lon":18.052820,"lat":-2.803320},
{"zone":"BOKORO","area":"NZAMPIE","village":"Pay-Pay","lon":18.132990,"lat":-2.808510},
{"zone":"BOKORO","area":"SANYA","village":"SANYA","lon":18.433330,"lat":-2.750000},
{"zone":"BOKORO","area":"SEKESIRI","village":"MBOON","lon":18.394046,"lat":-3.015148},
{"zone":"BOKORO","area":"TOLO I","village":"IKUI","lon":18.665330,"lat":-3.013430},
{"zone":"BOKORO","area":"TOLO I","village":"MASSAMBA","lon":18.644489,"lat":-3.007438},
{"zone":"BOKORO","area":"TOLO I","village":"MAZOKO","lon":18.500000,"lat":-2.883330},
{"zone":"BOKORO","area":"TOLO II","village":"LUA-IPEKE","lon":18.588780,"lat":-2.910990},
{"zone":"BOKORO","area":"TOLO","village":"Cité Tolo","lon":18.578560,"lat":-2.961370},
{"zone":"BOLOBO","area":"BIANGALA","village":"Biangala","lon":16.195790,"lat":-2.912710},
{"zone":"BOLOBO","area":"BIANGALA","village":"Ferme DJOBATALI","lon":16.198840,"lat":-2.865980},
{"zone":"BOLOBO","area":"BIANGALA","village":"Ferme LANGALANGA","lon":16.187690,"lat":-3.105740},
{"zone":"BOLOBO","area":"BIANGALA","village":"Ferme MBALANDA","lon":16.218650,"lat":-2.799950},
{"zone":"BOLOBO","area":"BIANGALA","village":"Ferme MPILA","lon":16.222710,"lat":-2.776590},
{"zone":"BOLOBO","area":"BIANGALA","village":"Ferme ZADA","lon":16.222200,"lat":-2.768970},
{"zone":"BOLOBO","area":"BIANGALA","village":"Ferme ZUNGA","lon":16.227790,"lat":-2.747630},
{"zone":"BOLOBO","area":"BIANGALA","village":"LUELE","lon":16.200000,"lat":-2.983330},
{"zone":"BOLOBO","area":"BIANGALA","village":"ODISOMI","lon":16.219370,"lat":-2.811690},
{"zone":"BOLOBO","area":"BIANGALA","village":"SALI","lon":16.415480,"lat":-2.813150},
{"zone":"BOLOBO","area":"BODZO","village":"BODZO","lon":16.263290,"lat":-2.466350},
{"zone":"BOLOBO","area":"BODZO","village":"Ferme MAYA MAYA","lon":16.259580,"lat":-2.507440},
{"zone":"BOLOBO","area":"BODZO","village":"Ferme NSOMPANA","lon":16.261380,"lat":-2.540980},
{"zone":"BOLOBO","area":"BOLOBO","village":"Cité Bolobo","lon":16.232490,"lat":-2.158000},
{"zone":"BOLOBO","area":"BOLOBO","village":"NGANDA MOBENGETE","lon":16.261120,"lat":-2.598800},
{"zone":"BOLOBO","area":"BOTANANKASA","village":"Botanankasa","lon":16.248240,"lat":-2.277440},
{"zone":"BOLOBO","area":"BOTANANKASA","village":"Camp BOZEKA","lon":16.256840,"lat":-2.658930},
{"zone":"BOLOBO","area":"BOTANANKASA","village":"Campement  Bobuankoso","lon":16.210690,"lat":-2.213660},
{"zone":"BOLOBO","area":"BOTANANKASA","village":"Ferme MOKOLONZIABI","lon":16.211540,"lat":-2.818240},
{"zone":"BOLOBO","area":"EMBU","village":"EMBU","lon":16.203670,"lat":-2.992090},
{"zone":"BOLOBO","area":"EMBU","village":"Ferme BAS-CONGO","lon":16.279190,"lat":-3.085060},
{"zone":"BOLOBO","area":"EMBU","village":"Ferme BOBO","lon":16.210710,"lat":-3.018400},
{"zone":"BOLOBO","area":"EMBU","village":"Ferme Israël","lon":16.213520,"lat":-3.037250},
{"zone":"BOLOBO","area":"EMBU","village":"Ferme KENE","lon":16.188170,"lat":-3.063570},
{"zone":"BOLOBO","area":"EMBU","village":"Ferme LIBAYA","lon":16.282470,"lat":-3.104170},
{"zone":"BOLOBO","area":"Embu","village":"Ferme MBENGA","lon":16.195140,"lat":-2.961530},
{"zone":"BOLOBO","area":"EMBU","village":"Ferme MWALA MANKONDO","lon":16.235450,"lat":-2.375700},
{"zone":"BOLOBO","area":"EMBU","village":"Ferme NGELELE","lon":16.209360,"lat":-3.044130},
{"zone":"BOLOBO","area":"EMBU","village":"Ferme PAPA LISALA","lon":16.187160,"lat":-3.111820},
{"zone":"BOLOBO","area":"EMBU","village":"Ferme SOCOA I","lon":16.185130,"lat":-3.098100},
{"zone":"BOLOBO","area":"EMBU","village":"Ferme SOCOA II","lon":16.197320,"lat":-3.125020},
{"zone":"BOLOBO","area":"EMBU","village":"Ferme SOCOA III","lon":16.198370,"lat":-3.151130},
{"zone":"BOLOBO","area":"EMBU","village":"Ferme VANGA","lon":16.188170,"lat":-3.086930},
{"zone":"BOLOBO","area":"EMBU","village":"LOSALO","lon":16.209210,"lat":-3.066650},
{"zone":"BOLOBO","area":"EMBU","village":"MANKONDO","lon":16.209360,"lat":-3.052360},
{"zone":"BOLOBO","area":"EMBU","village":"NGANDA DJUMA","lon":16.209720,"lat":-3.015390},
{"zone":"BOLOBO","area":"EMBU","village":"NGANDA KENE","lon":16.206650,"lat":-3.001040},
{"zone":"BOLOBO","area":"EMBU","village":"NGANDA LIBONGA","lon":16.196500,"lat":-3.094230},
{"zone":"BOLOBO","area":"EMBU","village":"NGANDA MBUZA","lon":16.186140,"lat":-3.121980},
{"zone":"BOLOBO","area":"ENDALA","village":"BOKOLO","lon":16.550530,"lat":-2.915207},
{"zone":"BOLOBO","area":"ENDALA","village":"ENDALA","lon":16.533000,"lat":-2.840920},
{"zone":"BOLOBO","area":"ENDALA","village":"Ferme DELTA/LETU","lon":16.584870,"lat":-2.968440},
{"zone":"Bolobo","area":"ENDALA","village":"NGUOMI","lon":16.546200,"lat":-2.874570},
{"zone":"Bolobo","area":"Endala","village":"OBOMONSIA","lon":16.472970,"lat":-2.777280},
{"zone":"BOLOBO","area":"ETEBE","village":"Etebe","lon":16.230300,"lat":-2.712890},
{"zone":"BOLOBO","area":"ETEBE","village":"Ferme LELONGO","lon":16.235030,"lat":-2.348920},
{"zone":"BOLOBO","area":"ETEBE","village":"MOSEBWAKA","lon":16.213520,"lat":-2.759740},
{"zone":"BOLOBO","area":"ETEBE","village":"NGAKWA","lon":16.218980,"lat":-2.751020},
{"zone":"BOLOBO","area":"ETEBE","village":"SOKOZELO","lon":16.226270,"lat":-2.723250},
{"zone":"BOLOBO","area":"LEBO","village":"BONGIE","lon":16.562660,"lat":-2.981790},
{"zone":"BOLOBO","area":"LEBO","village":"Ferme ISONSIAWE","lon":16.612290,"lat":-3.016330},
{"zone":"BOLOBO","area":"LEBO","village":"LEBO","lon":16.675380,"lat":-3.015600},
{"zone":"BOLOBO","area":"LEDIBA","village":"ELIEME","lon":16.455340,"lat":-3.058990},
{"zone":"BOLOBO","area":"LEDIBA","village":"Ferme EBUMA","lon":16.584170,"lat":-2.953470},
{"zone":"BOLOBO","area":"LEDIBA","village":"Ferme LUKA LUKA","lon":16.428350,"lat":-3.064440},
{"zone":"BOLOBO","area":"LEDIBA","village":"LEDIBA","lon":16.548120,"lat":-3.054570},
{"zone":"Bolobo","area":"Lediba","village":"MUKWADJARA","lon":16.565810,"lat":-3.006630},
{"zone":"BOLOBO","area":"LEDIBA","village":"NGADZWA","lon":16.464260,"lat":-3.062340},
{"zone":"BOLOBO","area":"MANKANZA","village":"BOBELEMBOMO","lon":16.310040,"lat":-2.168060},
{"zone":"BOLOBO","area":"MANKANZA","village":"MANKAKITI","lon":16.321640,"lat":-2.181430},
{"zone":"BOLOBO","area":"MANKANZA","village":"MANKANZA","lon":16.306470,"lat":-2.174810},
{"zone":"BOLOBO","area":"MANTUKA","village":"Ferme BOLOKO","lon":16.475730,"lat":-3.048580},
{"zone":"BOLOBO","area":"MANTUKA","village":"Ferme MBUNZA","lon":16.271800,"lat":-3.038240},
{"zone":"BOLOBO","area":"MANTUKA","village":"Ferme NGANKWO","lon":16.287900,"lat":-2.859040},
{"zone":"BOLOBO","area":"MANTUKA","village":"Ferme NGELOBO","lon":16.297380,"lat":-2.857680},
{"zone":"BOLOBO","area":"Mantuka","village":"MABWA MABWA","lon":16.261550,"lat":-2.894470},
{"zone":"BOLOBO","area":"MANTUKA","village":"Mantuka","lon":16.285860,"lat":-2.888840},
{"zone":"BOLOBO","area":"MANTUKA","village":"MOLEBO","lon":16.280450,"lat":-2.869870},
{"zone":"BOLOBO","area":"MANTUKA","village":"NGANDA MOLEBU","lon":16.287900,"lat":-2.867170},
{"zone":"BOLOBO","area":"MANTUKA","village":"NGELOBO","lon":16.221540,"lat":-2.743540},
{"zone":"BOLOBO","area":"MBEE","village":"MAKAA","lon":16.466670,"lat":-2.733330},
{"zone":"BOLOBO","area":"MBEE","village":"MBEE","lon":16.457030,"lat":-2.778310},
{"zone":"BOLOBO","area":"MBOMO","village":"Mbomo","lon":16.332725,"lat":-2.342581},
{"zone":"BOLOBO","area":"MBOMO","village":"NGEMU","lon":16.383210,"lat":-2.452250},
{"zone":"BOLOBO","area":"MBOMO","village":"OWELE","lon":16.395580,"lat":-2.424930},
{"zone":"BOLOBO","area":"MOKELE","village":"LENKALA","lon":16.586490,"lat":-3.030670},
{"zone":"BOLOBO","area":"MOKELE","village":"MAVULA MOSOW","lon":16.606970,"lat":-3.031130},
{"zone":"BOLOBO","area":"MOKELE","village":"MAWURA","lon":16.576230,"lat":-2.939120},
{"zone":"BOLOBO","area":"MOKELE","village":"MOKELE","lon":16.433330,"lat":-3.100000},
{"zone":"BOLOBO","area":"MOLENDE","village":"MOLENDE","lon":16.427880,"lat":-2.068420},
{"zone":"BOLOBO","area":"MOMPULENGE","village":"Mompulenge","lon":16.249000,"lat":-2.580190},
{"zone":"BOLOBO","area":"MOSENO","village":"Campement MASWE","lon":16.489570,"lat":-2.158260},
{"zone":"BOLOBO","area":"MOSENO","village":"Ferme POTO POTO","lon":16.243200,"lat":-2.254940},
{"zone":"BOLOBO","area":"MOSENO","village":"MOSENO","lon":16.240920,"lat":-2.363210},
{"zone":"BOLOBO","area":"MPETI","village":"NGEBOLOBO","lon":16.272410,"lat":-2.172270},
{"zone":"BOLOBO","area":"NDWA BATEKE","village":"EMBIRIMA","lon":16.403080,"lat":-2.552710},
{"zone":"BOLOBO","area":"NDWA BATEKE","village":"NDWA BATEKE","lon":16.336330,"lat":-2.595860},
{"zone":"BOLOBO","area":"NDWA BATENDE","village":"LAMBALI","lon":16.383390,"lat":-2.141840},
{"zone":"BOLOBO","area":"NDWA BATENDE","village":"NDWA BATENDE","lon":16.363589,"lat":-2.162952},
{"zone":"BOLOBO","area":"NGABENGE","village":"Ngabenge","lon":16.231710,"lat":-2.377610},
{"zone":"BOLOBO","area":"NGAMPOKO","village":"NGAMPOKO","lon":16.242376,"lat":-2.469317},
{"zone":"BOLOBO","area":"NGANDA MAWA","village":"Ferme TARANDU","lon":16.451320,"lat":-3.035260},
{"zone":"BOLOBO","area":"Nkoo","village":"BODZUNA","lon":16.474700,"lat":-2.706900},
{"zone":"BOLOBO","area":"NKOO","village":"BOSATORE III","lon":16.427110,"lat":-2.516420},
{"zone":"BOLOBO","area":"NKOO","village":"BOSINA","lon":16.416670,"lat":-2.500000},
{"zone":"BOLOBO","area":"NKOO","village":"Ferme MBOMOTURU","lon":16.485390,"lat":-2.558240},
{"zone":"BOLOBO","area":"NKOO","village":"Ferme NGANDIELE","lon":16.454540,"lat":-2.556870},
{"zone":"BOLOBO","area":"NKOO","village":"LEBODEO","lon":16.604040,"lat":-2.977160},
{"zone":"BOLOBO","area":"NKOO","village":"LEBOMO","lon":16.559440,"lat":-2.601430},
{"zone":"BOLOBO","area":"NKOO","village":"MALEBO","lon":16.483330,"lat":-2.450000},
{"zone":"BOLOBO","area":"NKOO","village":"MAVULA","lon":16.479910,"lat":-2.461570},
{"zone":"BOLOBO","area":"NKOO","village":"MPELU","lon":16.440150,"lat":-2.560070},
{"zone":"BOLOBO","area":"NKOO","village":"NKALA","lon":16.454867,"lat":-2.603245},
{"zone":"BOLOBO","area":"NKOO","village":"NKOO","lon":16.466670,"lat":-2.650000},
{"zone":"BOLOBO","area":"Osamokolo","village":"BONKWI","lon":16.387090,"lat":-3.052540},
{"zone":"BOLOBO","area":"OSAMOKOLO","village":"Ferme DOMINIQUE","lon":16.245370,"lat":-3.108550},
{"zone":"BOLOBO","area":"OSAMOKOLO","village":"Ferme MANKO MANKO","lon":16.326650,"lat":-3.083570},
{"zone":"BOLOBO","area":"OSAMOKOLO","village":"Ferme MAYALA","lon":16.345450,"lat":-3.082840},
{"zone":"BOLOBO","area":"OSAMOKOLO","village":"Ferme MOKILI","lon":16.410380,"lat":-3.062370},
{"zone":"BOLOBO","area":"OSAMOKOLO","village":"Ferme NGABAZANI","lon":16.430410,"lat":-3.052390},
{"zone":"BOLOBO","area":"OSAMOKOLO","village":"Ferme NTAMBO","lon":16.443110,"lat":-3.053100},
{"zone":"BOLOBO","area":"OSAMOKOLO","village":"Ferme SIMBAMBELI","lon":16.415950,"lat":-3.061910},
{"zone":"BOLOBO","area":"OSAMOKOLO","village":"KOKABA LIKELEMBA","lon":16.397620,"lat":-3.059090},
{"zone":"BOLOBO","area":"OSAMOKOLO","village":"MAKAYABU NORD","lon":16.436410,"lat":-3.064340},
{"zone":"BOLOBO","area":"OSAMOKOLO","village":"Mayala","lon":16.438500,"lat":-3.067980},
{"zone":"BOLOBO","area":"OSAMOKOLO","village":"MBUBA","lon":16.435140,"lat":-3.073240},
{"zone":"BOLOBO","area":"Osamokolo","village":"NGANDA MABANGA","lon":16.458630,"lat":-3.031600},
{"zone":"BOLOBO","area":"Osamokolo","village":"NGANDA MAWA","lon":16.452780,"lat":-3.072560},
{"zone":"BOLOBO","area":"OSAMOKOLO","village":"NGANDA NSILI","lon":16.379630,"lat":-3.064030},
{"zone":"BOLOBO","area":"Osamokolo","village":"NGANDA VANGA","lon":16.216960,"lat":-3.028260},
{"zone":"BOLOBO","area":"OSAMOKOLO","village":"Osamokolo","lon":16.487900,"lat":-3.046400},
{"zone":"BOLOBO","area":"Osamokolo","village":"SOCOA","lon":16.224500,"lat":-3.101460},
{"zone":"BOLOBO","area":"TSHUMA","village":"Ferme MOPALO","lon":16.257180,"lat":-2.666750},
{"zone":"BOLOBO","area":"TSHUMA","village":"MOMPONDO","lon":16.245800,"lat":-2.681130},
{"zone":"BOLOBO","area":"TSHUMA","village":"MPOMOKOLO","lon":16.258980,"lat":-2.500250},
{"zone":"BOLOBO","area":"TSHUMA","village":"NGADZIA","lon":16.247010,"lat":-2.519230},
{"zone":"BOLOBO","area":"TSHUMA","village":"TSHUMA","lon":16.254900,"lat":-2.554090},
{"zone":"BOLOBO","area":"TSHUMBIRI","village":"Cité Tshumbiri","lon":16.244040,"lat":-2.639210},
{"zone":"BOLOBO","area":"TSHUMBIRI","village":"Ferme ETULA","lon":16.243410,"lat":-2.691310},
{"zone":"BOLOBO","area":"TSHUMBIRI","village":"Ferme NGWASEKO","lon":16.263770,"lat":-2.540380},
{"zone":"BOLOBO","area":"TSHUMBIRI","village":"Ferme TALANAMISO","lon":16.543020,"lat":-3.047720},
{"zone":"BOLOBO","area":"TSHUMBIRI","village":"LEWOO","lon":16.306900,"lat":-2.627170},
{"zone":"BOMBOLI MBOKA II","area":"BOMBOLI MBOKA II","village":"BOMBOLI MBOKA II","lon":16.500000,"lat":-1.966670},
{"zone":"BONGENDE","area":"BONGENDE","village":"NGAMABILA","lon":16.428480,"lat":-2.037280},
{"zone":"BOSOBE","area":"BAMABA","village":"BAMABA","lon":18.636000,"lat":-3.095370},
{"zone":"BOSOBE","area":"BOBO CK","village":"BOBO CK","lon":18.522550,"lat":-3.561790},
{"zone":"BOSOBE","area":"BOBO CK","village":"BOBO PARIS","lon":18.490810,"lat":-3.562650},
{"zone":"BOSOBE","area":"BOBO CK","village":"NSEKEBE","lon":18.512200,"lat":-3.447560},
{"zone":"BOSOBE","area":"BOBO CK","village":"SEBION","lon":18.486820,"lat":-3.487550},
{"zone":"BOSOBE","area":"BOSOBE","village":"BOSOBE","lon":18.815987,"lat":-3.243862},
{"zone":"BOSOBE","area":"BOSOBE","village":"NDUAMA","lon":18.816670,"lat":-3.316670},
{"zone":"BOSOBE","area":"BUNA RIVE","village":"BUNA RIVE","lon":18.995020,"lat":-3.242510},
{"zone":"BOSOBE","area":"BUNA RIVE","village":"BUNA","lon":18.983330,"lat":-3.250000},
{"zone":"BOSOBE","area":"DUNGU","village":"BOMANZOKU","lon":18.862710,"lat":-3.578970},
{"zone":"BOSOBE","area":"DUNGU","village":"DUNGU","lon":18.866670,"lat":-3.650000},
{"zone":"BOSOBE","area":"DUNGU","village":"IBOTO","lon":18.855810,"lat":-3.627240},
{"zone":"BOSOBE","area":"DUNGU","village":"MPANDA","lon":18.827330,"lat":-3.521000},
{"zone":"BOSOBE","area":"ENKUTU","village":"EKOTO","lon":18.663310,"lat":-3.053592},
{"zone":"BOSOBE","area":"ENKUTU","village":"ENKUTU","lon":18.694190,"lat":-3.054520},
{"zone":"BOSOBE","area":"ENKUTU","village":"LUKENIE","lon":18.706725,"lat":-3.083027},
{"zone":"BOSOBE","area":"IKWALESA","village":"BONKITA","lon":18.800000,"lat":-3.166670},
{"zone":"BOSOBE","area":"IKWALESA","village":"IKWALESA","lon":18.733330,"lat":-3.100000},
{"zone":"BOSOBE","area":"KILIMA","village":"KILIMA","lon":18.550000,"lat":-3.566670},
{"zone":"BOSOBE","area":"KILIMA","village":"MBUI","lon":18.556190,"lat":-3.529370},
{"zone":"BOSOBE","area":"LIKWANGOLA","village":"BOSONKINI","lon":18.916670,"lat":-3.233330},
{"zone":"BOSOBE","area":"LIKWANGOLA","village":"LIKWANGOLA","lon":18.866670,"lat":-3.216670},
{"zone":"BOSOBE","area":"LIKWANGOLA","village":"MIAKA","lon":18.783840,"lat":-3.240470},
{"zone":"BOSOBE","area":"MBIEN KASAI","village":"MBIEN KASAI","lon":18.775440,"lat":-3.626560},
{"zone":"BOSOBE","area":"MBIEN KASAI","village":"MONKEIN","lon":18.733330,"lat":-3.616670},
{"zone":"BOSOBE","area":"SEBIE","village":"IKWAVILI","lon":18.613880,"lat":-3.541300},
{"zone":"BOSOBE","area":"SEBIE","village":"MBEKO","lon":18.633330,"lat":-3.450000},
{"zone":"BOSOBE","area":"SELEKOKO","village":"MABILI","lon":18.649120,"lat":-3.137630},
{"zone":"BOSOBE","area":"SELEKOKO","village":"SEKION","lon":18.600000,"lat":-3.100000},
{"zone":"BOSOBE","area":"SELEKOKO","village":"SEPEMBE","lon":18.612870,"lat":-3.177090},
{"zone":"BOSOBE","area":"SEMAZA","village":"SEMEZA I","lon":18.330890,"lat":-3.439890},
{"zone":"BOSOBE","area":"SEMENTOKO","village":"MABAMABA","lon":18.527080,"lat":-3.477320},
{"zone":"BOSOBE","area":"SEMENTOKO","village":"SEBELE","lon":18.483330,"lat":-3.450000},
{"zone":"BOSOBE","area":"SEMENTOKO","village":"SEDURI","lon":18.416670,"lat":-3.333330},
{"zone":"BOSOBE","area":"SEMENTOKO","village":"SEKESON","lon":18.431000,"lat":-3.359450},
{"zone":"BOSOBE","area":"SEMENTOKO","village":"SEMENTOKO","lon":18.591290,"lat":-3.462610},
{"zone":"BOSOBE","area":"SEMONDANE","village":"SEMONDANE","lon":18.350460,"lat":-3.507430},
{"zone":"BOSOBE","area":"TAMPIETE","village":"BOKAIN","lon":18.941640,"lat":-3.301330},
{"zone":"BOSOBE","area":"TAMPIETE","village":"Camp LEMBA","lon":18.829440,"lat":-3.288310},
{"zone":"BOSOBE","area":"TAMPIETE","village":"IFU","lon":18.823740,"lat":-3.300860},
{"zone":"BOSOBE","area":"TAMPIETE","village":"KUNGU","lon":18.922300,"lat":-3.300100},
{"zone":"BOSOBE","area":"TAMPIETE","village":"MONDJIMA","lon":18.833330,"lat":-3.416670},
{"zone":"BOSOBE","area":"TAMPIETE","village":"NSHO","lon":18.845238,"lat":-3.387918},
{"zone":"BOSOBE","area":"TAMPIETE","village":"TAMPIETE","lon":18.849018,"lat":-3.307125},
{"zone":"BOSOBE","area":"TENELE","village":"BOTUALE","lon":18.722520,"lat":-3.120610},
{"zone":"BOSOBE","area":"TENELE","village":"IDJA","lon":18.683330,"lat":-3.133330},
{"zone":"BOSOBE","area":"TENELE","village":"KEBINA","lon":18.695920,"lat":-3.208940},
{"zone":"BOSOBE","area":"TENELE","village":"KESHISHE","lon":18.719080,"lat":-3.161760},
{"zone":"BOSOBE","area":"TENELE","village":"TENELE MISSION","lon":18.751530,"lat":-3.192890},
{"zone":"BOSOBE","area":"TENELE","village":"TENELE RIVE","lon":18.750000,"lat":-3.150000},
{"zone":"BOSOBE","area":"TENELE","village":"TENELE","lon":18.759161,"lat":-3.195671},
{"zone":"BOTEMOLA","area":"BOTEMOLA","village":"BOTEMOLA","lon":18.771240,"lat":-2.604210},
{"zone":"BOTULU","area":"BOTULU","village":"BUTULU","lon":16.433330,"lat":-3.983330},
{"zone":"BOTULU","area":"BOTULU","village":"Ferme MASIMANIMBA","lon":16.776590,"lat":-3.997200},
{"zone":"BULUNGU","area":"BIKWON","village":"BIKWON","lon":19.068560,"lat":-4.702240},
{"zone":"BULUNGU","area":"BULUNGU","village":"Cité Bulungu","lon":18.597750,"lat":-4.536890},
{"zone":"BULUNGU","area":"BULUNGU","village":"Ferme LUZOLO YA NZAMBI","lon":19.050430,"lat":-4.570240},
{"zone":"BULUNGU","area":"BULUNGU","village":"KIA KIA II","lon":19.044870,"lat":-4.730560},
{"zone":"BULUNGU","area":"BULUNGU","village":"KIMPUTU VILLAGE","lon":18.525120,"lat":-4.671150},
{"zone":"BULUNGU","area":"BULUNGU","village":"MBELO KAZAKA","lon":19.107110,"lat":-4.356110},
{"zone":"BULUNGU","area":"BULUNGU","village":"MUNGALA","lon":18.940850,"lat":-4.650330},
{"zone":"BULUNGU","area":"CBCO","village":"Cité Bulungu - CBCO","lon":18.596040,"lat":-4.546940},
{"zone":"BULUNGU","area":"CBCO/MUYOMBO/NSELE","village":"Cité Bulungu - Nsele","lon":18.615650,"lat":-4.549170},
{"zone":"BULUNGU","area":"EBAY","village":"EBAY","lon":19.143040,"lat":-4.502550},
{"zone":"BULUNGU","area":"EBAY","village":"Ferme PAPA PROUST","lon":19.138300,"lat":-4.505780},
{"zone":"BULUNGU","area":"EBAY","village":"IMPANGA","lon":19.189620,"lat":-4.492940},
{"zone":"BULUNGU","area":"EBAY","village":"LUBANGU","lon":19.098820,"lat":-4.516210},
{"zone":"BULUNGU","area":"EBAY","village":"MATAMANKO I","lon":19.118500,"lat":-4.458600},
{"zone":"BULUNGU","area":"EBAY","village":"MATAMANKO II","lon":19.109150,"lat":-4.516730},
{"zone":"BULUNGU","area":"EBAY","village":"MAYILI","lon":19.203300,"lat":-4.476340},
{"zone":"BULUNGU","area":"EBAY","village":"Mosangu","lon":19.148120,"lat":-4.501730},
{"zone":"BULUNGU","area":"EBAY","village":"MPASI MPAMBA","lon":19.276870,"lat":-4.429380},
{"zone":"BULUNGU","area":"EBAY","village":"NDUNDU","lon":19.104300,"lat":-4.515850},
{"zone":"BULUNGU","area":"EBAY","village":"NGIEME","lon":19.181310,"lat":-4.487650},
{"zone":"BULUNGU","area":"EBAY","village":"TSHAMBANA","lon":19.171590,"lat":-4.491770},
{"zone":"BULUNGU","area":"EKUBI","village":"DAKAR","lon":19.159190,"lat":-4.656620},
{"zone":"BULUNGU","area":"EKUBI","village":"EKUBI II","lon":19.220760,"lat":-4.540420},
{"zone":"BULUNGU","area":"EKUBI","village":"EKUBI","lon":19.201470,"lat":-4.567710},
{"zone":"BULUNGU","area":"EKUBI","village":"Ferme KINO KIKONGO","lon":19.204970,"lat":-4.613360},
{"zone":"BULUNGU","area":"EKUBI","village":"MIKINGI EKUBI","lon":19.176120,"lat":-4.580790},
{"zone":"BULUNGU","area":"EKUBI","village":"MPANGO","lon":19.195300,"lat":-4.586860},
{"zone":"BULUNGU","area":"EKUBI","village":"NSIEDANA","lon":19.190140,"lat":-4.617780},
{"zone":"BULUNGU","area":"EKUBI","village":"TSHADANA","lon":19.194860,"lat":-4.630210},
{"zone":"BULUNGU","area":"FUNDA","village":"FUNDA","lon":18.840100,"lat":-4.634950},
{"zone":"BULUNGU","area":"INCONNU","village":"BAKATA","lon":18.757450,"lat":-4.745220},
{"zone":"BULUNGU","area":"INCONNU","village":"KAMBAMBA","lon":18.744820,"lat":-4.834140},
{"zone":"BULUNGU","area":"INCONNU","village":"KILWENGO","lon":18.877460,"lat":-4.911530},
{"zone":"BULUNGU","area":"INCONNU","village":"KINSOMI","lon":18.826540,"lat":-4.817010},
{"zone":"BULUNGU","area":"INCONNU","village":"KINSOMO II","lon":18.962440,"lat":-4.943380},
{"zone":"BULUNGU","area":"INCONNU","village":"KISALU MISSION PROTESTANTE","lon":18.751440,"lat":-4.768270},
{"zone":"BULUNGU","area":"INCONNU","village":"MAYENGA","lon":18.493190,"lat":-4.677590},
{"zone":"BULUNGU","area":"INCONNU","village":"MBANSAMA","lon":18.817930,"lat":-4.796850},
{"zone":"BULUNGU","area":"INCONNU","village":"MBELO WALA WALA","lon":18.752850,"lat":-4.863850},
{"zone":"BULUNGU","area":"INCONNU","village":"MBEMI MUBA","lon":18.769200,"lat":-4.848920},
{"zone":"BULUNGU","area":"INCONNU","village":"MBIMBI","lon":18.751120,"lat":-4.757800},
{"zone":"BULUNGU","area":"INCONNU","village":"MUWEDI","lon":18.828330,"lat":-4.832270},
{"zone":"BULUNGU","area":"INCONNU","village":"SHUMUNA","lon":18.764010,"lat":-4.847850},
{"zone":"BULUNGU","area":"KAZAMBA PINDI","village":"KAZAMBA PINDI","lon":18.671170,"lat":-4.628400},
{"zone":"BULUNGU","area":"KAZAMBA PINDI","village":"KIKANGU","lon":18.653450,"lat":-4.625540},
{"zone":"BULUNGU","area":"KAZAMBA PINDI","village":"KINGWAYA","lon":18.666970,"lat":-4.604430},
{"zone":"BULUNGU","area":"KAZAMBA PINDI","village":"NGONGO","lon":18.612420,"lat":-4.591250},
{"zone":"BULUNGU","area":"KAZAMBA PINDI","village":"SONGO","lon":18.637390,"lat":-4.566680},
{"zone":"BULUNGU","area":"KIA KIA","village":"BA MOSAY","lon":19.008000,"lat":-4.666780},
{"zone":"BULUNGU","area":"KIA KIA","village":"BIKWON MISSION PROTESTANTE","lon":19.070000,"lat":-4.700000},
{"zone":"BULUNGU","area":"KIA KIA","village":"BODWA","lon":19.003700,"lat":-4.674600},
{"zone":"BULUNGU","area":"KIA KIA","village":"Busongo","lon":19.060180,"lat":-4.649690},
{"zone":"BULUNGU","area":"KIA KIA","village":"Ferme MUKULU","lon":19.003360,"lat":-4.681520},
{"zone":"BULUNGU","area":"KIA KIA","village":"IMPUMU","lon":19.046990,"lat":-4.670700},
{"zone":"BULUNGU","area":"KIA KIA","village":"KIA KIA","lon":19.045890,"lat":-4.670280},
{"zone":"BULUNGU","area":"KIA KIA","village":"LUPAKA","lon":19.051190,"lat":-4.621810},
{"zone":"BULUNGU","area":"KIA KIA","village":"MBENI","lon":19.109130,"lat":-4.689050},
{"zone":"BULUNGU","area":"KIA KIA","village":"MIKINGI KIAKIA","lon":19.063690,"lat":-4.672600},
{"zone":"BULUNGU","area":"KIA KIA","village":"MOSAY","lon":19.019220,"lat":-4.667510},
{"zone":"BULUNGU","area":"KIA KIA","village":"YUNGANA","lon":19.053280,"lat":-4.780070},
{"zone":"BULUNGU","area":"KINDWA","village":"ELOMO KIKONGO","lon":18.809400,"lat":-4.623190},
{"zone":"BULUNGU","area":"KIWUTU","village":"KIKASAMWENI","lon":18.438560,"lat":-4.813340},
{"zone":"BULUNGU","area":"KIWUTU","village":"MAKUNGU","lon":18.459220,"lat":-4.802840},
{"zone":"BULUNGU","area":"KIYAKA MAFUTAMINGI","village":"KIYAKA MAFUTAMINGI","lon":18.703350,"lat":-4.759820},
{"zone":"BULUNGU","area":"KUNGA","village":"KIANGA","lon":18.519140,"lat":-4.683450},
{"zone":"BULUNGU","area":"KUNGA","village":"KUNGA PLC","lon":18.602890,"lat":-4.673390},
{"zone":"BULUNGU","area":"LUBUNDJI","village":"Camp CHINOIS PORT","lon":18.593480,"lat":-4.522280},
{"zone":"BULUNGU","area":"LUBUNDJI","village":"Camp SCIERE","lon":18.653910,"lat":-4.553130},
{"zone":"BULUNGU","area":"MALUNGA","village":"BUVUKU KINDALA","lon":18.539120,"lat":-4.634050},
{"zone":"BULUNGU","area":"MALUNGA","village":"KIMESU","lon":18.512500,"lat":-4.640800},
{"zone":"BULUNGU","area":"MALUNGU","village":"MBUNGA KAKESA","lon":18.507280,"lat":-4.670030},
{"zone":"BULUNGU","area":"MALUNGU","village":"MUWEDI","lon":18.531810,"lat":-4.665140},
{"zone":"BULUNGU","area":"MALUNGU","village":"NGAMBA KIKASAMWENE","lon":18.557450,"lat":-4.668820},
{"zone":"BULUNGU","area":"MAYALA","village":"BINKULU","lon":18.823210,"lat":-4.617280},
{"zone":"BULUNGU","area":"MAYALA","village":"KIKONGO VILLAGE","lon":18.782920,"lat":-4.624970},
{"zone":"BULUNGU","area":"MAYALA","village":"KWILUMPIA","lon":18.863150,"lat":-4.629090},
{"zone":"BULUNGU","area":"MAYALA","village":"MAYALA","lon":18.838790,"lat":-4.618440},
{"zone":"BULUNGU","area":"MAYOKO NIADI","village":"ELOM MUKOLO","lon":19.049450,"lat":-4.404220},
{"zone":"BULUNGU","area":"MAYOKO NIADI","village":"INIMI","lon":18.962280,"lat":-4.508520},
{"zone":"BULUNGU","area":"MAYOKO NIADI","village":"MASENGE MADA","lon":19.009450,"lat":-4.478350},
{"zone":"BULUNGU","area":"MAYOKO NIADI","village":"MAYOKO NIADI","lon":18.997920,"lat":-4.443230},
{"zone":"BULUNGU","area":"MAYOKO NIADI","village":"MUSHIALA - Ferme SADILA","lon":18.997540,"lat":-4.395440},
{"zone":"BULUNGU","area":"MAYOKO NIADI","village":"MUSHIALA","lon":19.021630,"lat":-4.401640},
{"zone":"BULUNGU","area":"MAYOKO NIADI","village":"NSIEMBELE","lon":19.000950,"lat":-4.463230},
{"zone":"BULUNGU","area":"MBENI","village":"MBALAMBELE","lon":19.159360,"lat":-4.704610},
{"zone":"BULUNGU","area":"MBENI","village":"TSHIANGUNU","lon":19.073670,"lat":-4.723130},
{"zone":"BULUNGU","area":"MBIMBI","village":"BAGATA","lon":18.748860,"lat":-4.803980},
{"zone":"BULUNGU","area":"MBIMBI","village":"MIBIDI","lon":18.802890,"lat":-4.776590},
{"zone":"BULUNGU","area":"MITSHAKILA","village":"KIKONGO MITSHAKILA","lon":18.782380,"lat":-4.629410},
{"zone":"BULUNGU","area":"MITSHAKILA","village":"MBANZA","lon":18.744860,"lat":-4.641820},
{"zone":"BULUNGU","area":"MITSHAKILA","village":"MBELO","lon":18.793220,"lat":-4.661910},
{"zone":"BULUNGU","area":"MITSHAKILA","village":"MILUNDU","lon":18.828210,"lat":-4.720160},
{"zone":"BULUNGU","area":"MITSHAKILA","village":"MITSHAKILA","lon":18.736360,"lat":-4.667270},
{"zone":"BULUNGU","area":"MITSHAKILA","village":"MOKILAWA","lon":18.833020,"lat":-4.717790},
{"zone":"BULUNGU","area":"MITSHAKILA","village":"MOSANGO MANGALA - Camp KIMBANGUISTE","lon":18.778910,"lat":-4.726710},
{"zone":"BULUNGU","area":"MPENE MUKOKO","village":"MIBIERE","lon":18.896450,"lat":-4.488940},
{"zone":"BULUNGU","area":"MPENE","village":"3 MAISONS (NZO TATU)","lon":18.817680,"lat":-4.512590},
{"zone":"BULUNGU","area":"MPENE","village":"Camp EP CUEBS MPENE","lon":18.829860,"lat":-4.488380},
{"zone":"BULUNGU","area":"MPENE","village":"Camp INSITUT MA CAMPAGNE","lon":18.833910,"lat":-4.510200},
{"zone":"BULUNGU","area":"MPENE","village":"EYANA","lon":18.820550,"lat":-4.478300},
{"zone":"BULUNGU","area":"MPENE","village":"Ferme BEACH MPENE","lon":18.840860,"lat":-4.517810},
{"zone":"BULUNGU","area":"MPENE","village":"Ferme KATANGA","lon":18.821830,"lat":-4.482350},
{"zone":"BULUNGU","area":"MPENE","village":"Ferme MIMPI","lon":18.802570,"lat":-4.477060},
{"zone":"BULUNGU","area":"MPENE","village":"Ferme NSELE","lon":18.812180,"lat":-4.509410},
{"zone":"BULUNGU","area":"MPENE","village":"KINGUMBA","lon":18.866200,"lat":-4.514700},
{"zone":"BULUNGU","area":"MPENE","village":"MATU","lon":18.807510,"lat":-4.506790},
{"zone":"BULUNGU","area":"MPENE","village":"MIMPI","lon":18.821530,"lat":-4.485240},
{"zone":"BULUNGU","area":"MPENE","village":"MPENE POSTE","lon":18.845720,"lat":-4.523170},
{"zone":"BULUNGU","area":"MPENE","village":"MPENE","lon":18.824880,"lat":-4.493500},
{"zone":"BULUNGU","area":"MPENE","village":"NKARA EWA","lon":18.862000,"lat":-4.528590},
{"zone":"BULUNGU","area":"MUBIDI","village":"Camp MUBIDI","lon":17.652780,"lat":-4.587400},
{"zone":"BULUNGU","area":"MUSENGE","village":"BUNDJI","lon":18.878380,"lat":-4.645370},
{"zone":"BULUNGU","area":"MUSENGE","village":"Ferme NDERB","lon":18.896430,"lat":-4.645420},
{"zone":"BULUNGU","area":"MUSENGE","village":"KULUMPIA","lon":19.061610,"lat":-4.604850},
{"zone":"BULUNGU","area":"MUSENGE","village":"MUKULU MUSENGE","lon":18.963610,"lat":-4.669770},
{"zone":"BULUNGU","area":"MUSENGE","village":"MUKULUMBISI","lon":18.911960,"lat":-4.708580},
{"zone":"BULUNGU","area":"MUSENGE","village":"MUSENGE II (KAZAMBA)","lon":18.960200,"lat":-4.642390},
{"zone":"BULUNGU","area":"MUSENGE","village":"MUSENGE","lon":18.962870,"lat":-4.647560},
{"zone":"BULUNGU","area":"MUSENGE","village":"NSAMA","lon":18.905580,"lat":-4.642280},
{"zone":"BULUNGU","area":"MUSENGE","village":"TSHIADANA (BISUERE)","lon":18.958920,"lat":-4.640130},
{"zone":"BULUNGU","area":"MUTOY","village":"Ferme MORBEK","lon":18.919240,"lat":-4.721490},
{"zone":"BULUNGU","area":"MUTOY","village":"Ferme MUBI","lon":19.160480,"lat":-4.430910},
{"zone":"BULUNGU","area":"MUTOY","village":"KIMBIMBI I","lon":19.194890,"lat":-4.411390},
{"zone":"BULUNGU","area":"MUTOY","village":"KIMBIMBI II","lon":19.218080,"lat":-4.430140},
{"zone":"BULUNGU","area":"MUTOY","village":"Mbele Mbele","lon":19.183490,"lat":-4.359680},
{"zone":"BULUNGU","area":"MUTOY","village":"MUKULU MUTOY","lon":19.192300,"lat":-4.413320},
{"zone":"BULUNGU","area":"MUTOY","village":"Mutoy Mission Catholique","lon":19.175320,"lat":-4.445720},
{"zone":"BULUNGU","area":"MUTOY","village":"Mutoy","lon":19.178460,"lat":-4.421310},
{"zone":"BULUNGU","area":"MUTOY","village":"NIAMADA","lon":19.146620,"lat":-4.414320},
{"zone":"BULUNGU","area":"NDWIY","village":"Ferme MPUNA MPUNA","lon":19.072730,"lat":-4.360690},
{"zone":"BULUNGU","area":"NDWIY","village":"Mukulubiala","lon":19.161430,"lat":-4.333110},
{"zone":"BULUNGU","area":"NDWIY","village":"MUSWA","lon":19.096260,"lat":-4.463430},
{"zone":"BULUNGU","area":"NDWIY","village":"NDWIY I","lon":19.088460,"lat":-4.408120},
{"zone":"BULUNGU","area":"NDWIY","village":"NDWIY II","lon":19.102830,"lat":-4.377790},
{"zone":"BULUNGU","area":"NDWIY","village":"PUNGU","lon":19.094090,"lat":-4.450900},
{"zone":"BULUNGU","area":"NIADI","village":"ELOMO","lon":18.993570,"lat":-4.373670},
{"zone":"BULUNGU","area":"NIADI","village":"MUKOLO","lon":18.983800,"lat":-4.391120},
{"zone":"BULUNGU","area":"NIADI","village":"NDOBO","lon":18.911660,"lat":-4.463380},
{"zone":"BULUNGU","area":"NIADI","village":"NIADI","lon":18.933740,"lat":-4.414420},
{"zone":"BULUNGU","area":"NIADI","village":"NKWAYA","lon":18.903100,"lat":-4.408550},
{"zone":"BULUNGU","area":"NKARA","village":"Camp ENSEIGNANTS INSTITUT MUKOKO","lon":18.933270,"lat":-4.535560},
{"zone":"BULUNGU","area":"NKARA","village":"Camp KIMBANGUISTE NKARA EWA","lon":18.869810,"lat":-4.530070},
{"zone":"BULUNGU","area":"NKARA","village":"LONGO KUMA KUMA","lon":18.911330,"lat":-4.544870},
{"zone":"BULUNGU","area":"NKARA","village":"MBILA I","lon":18.922440,"lat":-4.566640},
{"zone":"BULUNGU","area":"NKARA","village":"MBILA II","lon":18.923140,"lat":-4.574210},
{"zone":"BULUNGU","area":"NKARA","village":"NKARA CENTRE","lon":18.890950,"lat":-4.532460},
{"zone":"BULUNGU","area":"NKARA","village":"NKARA SECTEUR","lon":18.883280,"lat":-4.532570},
{"zone":"BULUNGU","area":"NKARA","village":"NKARA VILLAGE","lon":18.883950,"lat":-4.539930},
{"zone":"BULUNGU","area":"NKARA","village":"NTSHIANGOBO","lon":18.856860,"lat":-4.530480},
{"zone":"BULUNGU","area":"NKARA","village":"ONKUNSIE","lon":18.903210,"lat":-4.576520},
{"zone":"BULUNGU","area":"NKO","village":"KIMBANGU I","lon":18.642880,"lat":-4.676330},
{"zone":"BULUNGU","area":"NKO","village":"KIMBANGU II","lon":18.639780,"lat":-4.680700},
{"zone":"BULUNGU","area":"NKO","village":"KINKONZI","lon":18.564760,"lat":-4.597790},
{"zone":"BULUNGU","area":"NTANDU","village":"BIENZI","lon":19.038310,"lat":-4.591230},
{"zone":"BULUNGU","area":"NTANDU","village":"Camp ANTENNE","lon":18.994540,"lat":-4.624520},
{"zone":"BULUNGU","area":"NTANDU","village":"Ferme ELONGA","lon":19.006770,"lat":-4.593920},
{"zone":"BULUNGU","area":"NTANDU","village":"Ferme EYUMA","lon":19.030440,"lat":-4.505800},
{"zone":"BULUNGU","area":"NTANDU","village":"Ferme MAKAKA","lon":18.993920,"lat":-4.605760},
{"zone":"BULUNGU","area":"NTANDU","village":"KWILU MILUNDU","lon":18.972670,"lat":-4.583360},
{"zone":"BULUNGU","area":"NTANDU","village":"NTANDU","lon":19.016020,"lat":-4.540170},
{"zone":"BULUNGU","area":"PINDI MISSION CATHOLIQUE","village":"Ferme BON POUR","lon":18.739930,"lat":-4.564790},
{"zone":"BULUNGU","area":"PINDI MISSION CATHOLIQUE","village":"Ferme JERUSALEM","lon":18.763670,"lat":-4.550170},
{"zone":"BULUNGU","area":"PINDI MISSION CATHOLIQUE","village":"Ferme MBELO BOY","lon":18.747080,"lat":-4.562790},
{"zone":"BULUNGU","area":"PINDI MISSION CATHOLIQUE","village":"Ferme WAMBA","lon":18.691710,"lat":-4.573670},
{"zone":"BULUNGU","area":"PINDI MISSION CATHOLIQUE","village":"FINGILA","lon":18.695550,"lat":-4.586460},
{"zone":"BULUNGU","area":"PINDI MISSION CATHOLIQUE","village":"KANGA MOTEMA","lon":18.706090,"lat":-4.575670},
{"zone":"BULUNGU","area":"PINDI MISSION CATHOLIQUE","village":"KINKU","lon":18.778750,"lat":-4.543640},
{"zone":"BULUNGU","area":"PINDI MISSION CATHOLIQUE","village":"MAYALA","lon":18.762540,"lat":-4.543300},
{"zone":"BULUNGU","area":"PINDI MISSION CATHOLIQUE","village":"MBIDILA","lon":18.749430,"lat":-4.562630},
{"zone":"BULUNGU","area":"PINDI MISSION CATHOLIQUE","village":"MPULUNKUSU","lon":18.759120,"lat":-4.563420},
{"zone":"BULUNGU","area":"PINDI MISSION","village":"Camp AVION","lon":18.683320,"lat":-4.557010},
{"zone":"BULUNGU","area":"PINDI MISSION","village":"Ferme CHANGEE","lon":18.766260,"lat":-4.543460},
{"zone":"BULUNGU","area":"PINDI MISSION","village":"KIKANDJI","lon":18.704890,"lat":-4.595810},
{"zone":"BULUNGU","area":"PINDI","village":"BUKANGA SANGI","lon":18.689230,"lat":-4.609460},
{"zone":"BULUNGU","area":"PINDI","village":"Camp MUPEPE","lon":18.692150,"lat":-4.552680},
{"zone":"BULUNGU","area":"PINDI","village":"Camp TRANQUILLE","lon":18.691930,"lat":-4.568780},
{"zone":"BULUNGU","area":"PINDI","village":"LONGO PINDI","lon":18.701390,"lat":-4.548950},
{"zone":"BULUNGU","area":"PINDI","village":"NGWARI NGWARI","lon":18.797010,"lat":-4.528790},
{"zone":"BULUNGU","area":"PINDI","village":"PINDI MISSION CATHOLIQUE","lon":18.720680,"lat":-4.587550},
{"zone":"BULUNGU","area":"PINDI","village":"PINDI WANGATA","lon":18.690820,"lat":-4.583380},
{"zone":"BULUNGU","area":"SONGO","village":"Ferme MUDJI","lon":18.539210,"lat":-4.660380},
{"zone":"BULUNGU","area":"SUNGU","village":"KILUNGU","lon":18.560240,"lat":-4.653610},
{"zone":"BULUNGU","area":"SUNGU","village":"MBANZA MAZO","lon":18.551550,"lat":-4.640030},
{"zone":"BULUNGU","area":"SUNGU","village":"SUNGU","lon":18.573890,"lat":-4.625470},
{"zone":"BULUNGU","area":"YAMBAW","village":"DANATUM","lon":19.049610,"lat":-4.637410},
{"zone":"BULUNGU","area":"YAMBAW","village":"Ferme 3 Frères I","lon":19.064270,"lat":-4.552320},
{"zone":"BULUNGU","area":"YAMBAW","village":"Ferme 3 Frères II","lon":19.075320,"lat":-4.558990},
{"zone":"BULUNGU","area":"YAMBAW","village":"ISEME","lon":19.130870,"lat":-4.584480},
{"zone":"BULUNGU","area":"YAMBAW","village":"KANGA I","lon":19.093250,"lat":-4.574930},
{"zone":"BULUNGU","area":"YAMBAW","village":"KANGA II","lon":19.088791,"lat":-4.574565},
{"zone":"BULUNGU","area":"YAMBAW","village":"KWILANDONGO","lon":19.099920,"lat":-4.648760},
{"zone":"BULUNGU","area":"YAMBAW","village":"LUBANGU II","lon":19.065500,"lat":-4.524830},
{"zone":"BULUNGU","area":"YAMBAW","village":"TEBE TEBE","lon":19.141690,"lat":-4.585870},
{"zone":"BULUNGU","area":"YAMBAW","village":"YAMBAU","lon":19.111240,"lat":-4.583310},
{"zone":"BULUNGU","area":"YUNGU","village":"YUNGU","lon":17.453590,"lat":-4.528880},
{"zone":"DJUMA","area":"DJUMA","village":"Cité Djuma","lon":18.351020,"lat":-4.167830},
{"zone":"DJUMA","area":"DJUMA","village":"Cité Djuma","lon":18.362920,"lat":-4.162760},
{"zone":"DJUMA","area":"DJUMA","village":"KIBWADI YOSO","lon":18.381820,"lat":-4.161790},
{"zone":"DJUMA","area":"DJUMA","village":"LONGO","lon":18.379890,"lat":-4.153070},
{"zone":"DJUMA","area":"DJUMA","village":"NGWEMI","lon":18.363410,"lat":-4.199590},
{"zone":"DJUMA","area":"DJUMA","village":"NKUTU","lon":18.407290,"lat":-4.381110},
{"zone":"DJUMA","area":"DWE","village":"DWE I","lon":18.839270,"lat":-4.328630},
{"zone":"DJUMA","area":"DWE","village":"DWE II","lon":18.838329,"lat":-4.338260},
{"zone":"DJUMA","area":"DWE","village":"DWE III","lon":18.834930,"lat":-4.339580},
{"zone":"DJUMA","area":"DWE","village":"DWE IV","lon":18.829069,"lat":-4.330640},
{"zone":"DJUMA","area":"DWE","village":"DWE SECTEUR","lon":18.897570,"lat":-4.314520},
{"zone":"DJUMA","area":"DWE","village":"MC DWE","lon":18.825520,"lat":-4.299220},
{"zone":"DJUMA","area":"DWE","village":"NKWEBE I","lon":18.889410,"lat":-4.320260},
{"zone":"DJUMA","area":"ETO","village":"ETO","lon":18.847450,"lat":-4.428590},
{"zone":"DJUMA","area":"ETO","village":"MOBINI","lon":18.868470,"lat":-4.432160},
{"zone":"DJUMA","area":"Eto","village":"YAYA MOKALA","lon":18.905140,"lat":-4.378070},
{"zone":"DJUMA","area":"Eto","village":"YAYA MOKALA","lon":18.905140,"lat":-4.378070},
{"zone":"DJUMA","area":"FUMUNDJOKO","village":"AMBURA I","lon":18.738450,"lat":-4.380620},
{"zone":"DJUMA","area":"FUMUNDJOKO","village":"AMBURA II","lon":18.756820,"lat":-4.448390},
{"zone":"DJUMA","area":"FUMUNDJOKO","village":"ELOME MATU","lon":18.763000,"lat":-4.461300},
{"zone":"DJUMA","area":"FUMUNDJOKO","village":"Fumundjoko","lon":18.777670,"lat":-4.434200},
{"zone":"DJUMA","area":"FUMUNDJOKO","village":"NKOTO","lon":18.796680,"lat":-4.446980},
{"zone":"DJUMA","area":"FUMUNDJOKO","village":"NZUNDU","lon":18.804100,"lat":-4.455060},
{"zone":"DJUMA","area":"INCONNU","village":"KWAMWEY","lon":18.996200,"lat":-4.274530},
{"zone":"DJUMA","area":"INCONNU","village":"MANDUNDU","lon":18.566670,"lat":-4.116670},
{"zone":"DJUMA","area":"INCONNU","village":"MASINGA","lon":18.801480,"lat":-4.134160},
{"zone":"DJUMA","area":"INCONNU","village":"MBALA BAMPUTU","lon":18.569040,"lat":-4.106260},
{"zone":"DJUMA","area":"INSAL","village":"KITABA MESO","lon":18.785790,"lat":-4.186960},
{"zone":"DJUMA","area":"INSAL","village":"KITABA","lon":18.767170,"lat":-4.183400},
{"zone":"DJUMA","area":"INSAL","village":"LWANGA","lon":18.799270,"lat":-4.195680},
{"zone":"DJUMA","area":"INSAL","village":"MALANGA","lon":18.758450,"lat":-4.176660},
{"zone":"DJUMA","area":"KABALA","village":"KABALA","lon":18.234059,"lat":-4.064362},
{"zone":"DJUMA","area":"KABALA","village":"KIBWANGA","lon":18.248740,"lat":-4.117510},
{"zone":"DJUMA","area":"KABALA","village":"KIMBANGI I","lon":18.237920,"lat":-4.135820},
{"zone":"DJUMA","area":"KABALA","village":"KIMBANGI II","lon":18.237920,"lat":-4.143310},
{"zone":"DJUMA","area":"KABALA","village":"LOMBE","lon":18.313890,"lat":-4.144850},
{"zone":"DJUMA","area":"KABALA","village":"MIKWARI","lon":18.235115,"lat":-4.084077},
{"zone":"DJUMA","area":"KABALA","village":"MUPOY","lon":18.283420,"lat":-4.129100},
{"zone":"DJUMA","area":"KABALA","village":"MUPOY","lon":19.091920,"lat":-4.204180},
{"zone":"DJUMA","area":"KABALA","village":"NGAMAKOKO","lon":18.256230,"lat":-4.209080},
{"zone":"DJUMA","area":"KIMBANGULA","village":"BABA","lon":18.516560,"lat":-4.260480},
{"zone":"DJUMA","area":"KIMBANGULA","village":"KIMBANGULA","lon":18.516670,"lat":-4.250000},
{"zone":"DJUMA","area":"KIMBANGULA","village":"MUKILA LUBASU","lon":18.524450,"lat":-4.163960},
{"zone":"DJUMA","area":"KIMBATA","village":"KIANGA","lon":18.436640,"lat":-4.232510},
{"zone":"DJUMA","area":"KIMBATA","village":"KIDIA","lon":18.406220,"lat":-4.223560},
{"zone":"DJUMA","area":"KIMBATA","village":"KILONGO","lon":18.460410,"lat":-4.258330},
{"zone":"DJUMA","area":"KIMBATA","village":"KIMBATA","lon":18.466670,"lat":-4.216670},
{"zone":"DJUMA","area":"KIMBATA","village":"KINDIA","lon":18.383330,"lat":-4.233330},
{"zone":"DJUMA","area":"KIMBATA","village":"MULADI","lon":18.432040,"lat":-4.259350},
{"zone":"DJUMA","area":"KIMPINI","village":"DWA","lon":18.979043,"lat":-4.296617},
{"zone":"DJUMA","area":"KIMPINI","village":"KIMPINI","lon":18.996600,"lat":-4.244820},
{"zone":"DJUMA","area":"KIMPINI","village":"KOLONZADI","lon":18.907160,"lat":-4.308420},
{"zone":"DJUMA","area":"KIMPINI","village":"MILUNDU","lon":19.016670,"lat":-4.250000},
{"zone":"DJUMA","area":"KIMPINI","village":"MITWADI","lon":18.996990,"lat":-4.238480},
{"zone":"DJUMA","area":"LAREME","village":"BILILI LEMBE","lon":18.366670,"lat":-4.366670},
{"zone":"DJUMA","area":"LAREME","village":"KINDELE","lon":18.362600,"lat":-4.085520},
{"zone":"DJUMA","area":"LAREME","village":"LAREME","lon":18.285940,"lat":-4.005240},
{"zone":"DJUMA","area":"LAREME","village":"LUBOLO","lon":18.297360,"lat":-4.255080},
{"zone":"DJUMA","area":"LAREME","village":"MATANA KIMBUMB","lon":18.402830,"lat":-4.020490},
{"zone":"DJUMA","area":"LAREME","village":"MATANA NGOMANGA","lon":18.387580,"lat":-3.996770},
{"zone":"DJUMA","area":"LAREME","village":"MATANA NSALWO","lon":18.333330,"lat":-4.016670},
{"zone":"DJUMA","area":"LAREME","village":"MATANA SHABA","lon":18.393510,"lat":-4.023030},
{"zone":"DJUMA","area":"LAREME","village":"MIKIESE","lon":18.430390,"lat":-4.105030},
{"zone":"DJUMA","area":"LAREME","village":"MWENSIA","lon":18.291870,"lat":-3.986600},
{"zone":"DJUMA","area":"LAREME","village":"NKOSHI PORT","lon":18.229190,"lat":-3.996770},
{"zone":"DJUMA","area":"LAREME","village":"NKOSHI VILLAGE","lon":18.238500,"lat":-3.995080},
{"zone":"DJUMA","area":"LAREME","village":"NKWASA","lon":18.347950,"lat":-4.032290},
{"zone":"DJUMA","area":"LUBIDI","village":"KIBONGO MUYEKE","lon":18.721220,"lat":-4.423720},
{"zone":"DJUMA","area":"LUBIDI","village":"MUYEKE","lon":18.450000,"lat":-4.316670},
{"zone":"DJUMA","area":"LUNGAMA","village":"LUNGAMA","lon":18.953831,"lat":-4.309390},
{"zone":"DJUMA","area":"LUNGAMA","village":"MIBILI","lon":18.966480,"lat":-4.285550},
{"zone":"DJUMA","area":"LUNGAMA","village":"MIBILI","lon":18.966480,"lat":-4.285550},
{"zone":"DJUMA","area":"LUNGAMA","village":"MPENE I","lon":19.004570,"lat":-4.341200},
{"zone":"DJUMA","area":"LUNGAMA","village":"MPENE II","lon":18.960390,"lat":-4.357360},
{"zone":"DJUMA","area":"LUNGAMA","village":"MPENE II","lon":18.960390,"lat":-4.357360},
{"zone":"DJUMA","area":"LUNGAMA","village":"NGWABA I","lon":18.914749,"lat":-4.295680},
{"zone":"DJUMA","area":"LUNGAMA","village":"NGWABA II","lon":18.914749,"lat":-4.295680},
{"zone":"DJUMA","area":"LUZUBI","village":"KIMPA","lon":18.430440,"lat":-4.075290},
{"zone":"DJUMA","area":"LUZUBI","village":"KIMPANDA","lon":18.446870,"lat":-4.107560},
{"zone":"DJUMA","area":"LUZUBI","village":"KISAMBA","lon":18.387640,"lat":-4.090690},
{"zone":"DJUMA","area":"LUZUBI","village":"LUZUBI","lon":18.442910,"lat":-4.029610},
{"zone":"DJUMA","area":"LUZUBI","village":"MANSUMU","lon":18.423020,"lat":-4.059880},
{"zone":"DJUMA","area":"LUZUBI","village":"MBALAKA","lon":18.416670,"lat":-4.150000},
{"zone":"DJUMA","area":"LUZUBI","village":"MIKAY","lon":18.417310,"lat":-4.077570},
{"zone":"DJUMA","area":"LWANO","village":"BWINI","lon":18.330100,"lat":-4.179210},
{"zone":"DJUMA","area":"LWANO","village":"KINGANGA","lon":18.301920,"lat":-4.143940},
{"zone":"DJUMA","area":"LWANO","village":"KIO","lon":18.297130,"lat":-4.135700},
{"zone":"DJUMA","area":"LWANO","village":"LWANO","lon":18.325264,"lat":-4.104958},
{"zone":"DJUMA","area":"LWANO","village":"MANIE","lon":18.310960,"lat":-4.114160},
{"zone":"DJUMA","area":"LWANO","village":"MILUNDU","lon":18.368670,"lat":-4.103520},
{"zone":"DJUMA","area":"MADIBI","village":"MADIBI MAWAWA","lon":18.422002,"lat":-4.289501},
{"zone":"DJUMA","area":"MANDUNDU","village":"LUKANGA","lon":18.567950,"lat":-4.144900},
{"zone":"DJUMA","area":"MAYOKO SAKASAKA","village":"MAYOKO I","lon":18.770241,"lat":-4.280160},
{"zone":"DJUMA","area":"MAYOKO SAKASAKA","village":"MAYOKO II","lon":18.763639,"lat":-4.283870},
{"zone":"DJUMA","area":"MAYOKO SAKASAKA","village":"MAYOKO III","lon":18.763710,"lat":-4.292940},
{"zone":"DJUMA","area":"MAYOKO SAKASAKA","village":"MIKINGI I","lon":18.783650,"lat":-4.279570},
{"zone":"DJUMA","area":"MAYOKO SAKASAKA","village":"MIKINGI II","lon":18.800190,"lat":-4.281280},
{"zone":"DJUMA","area":"MBALA BAMPUTU","village":"KIANGA","lon":19.033330,"lat":-4.250000},
{"zone":"DJUMA","area":"MBALA BAMPUTU","village":"LUWA","lon":18.728870,"lat":-4.119220},
{"zone":"DJUMA","area":"MBALA BAMPUTU","village":"MAYILI","lon":18.557110,"lat":-4.106100},
{"zone":"DJUMA","area":"MIACH","village":"MIAH","lon":18.848100,"lat":-4.121670},
{"zone":"DJUMA","area":"MIKWI SECT","village":"Camp BULUNGU","lon":18.370520,"lat":-4.248750},
{"zone":"DJUMA","area":"MIKWI SECT","village":"Camp FOOTBALL","lon":18.421020,"lat":-4.230350},
{"zone":"DJUMA","area":"MIKWI SECT","village":"Camp LUKOMBE","lon":18.350000,"lat":-4.266670},
{"zone":"DJUMA","area":"MIKWI SECT","village":"Camp MILUNDU","lon":18.387640,"lat":-4.239770},
{"zone":"DJUMA","area":"MIKWI SECT","village":"Camp TUILE","lon":18.397480,"lat":-4.240620},
{"zone":"DJUMA","area":"MIKWI SECT","village":"LUZUNA","lon":18.452260,"lat":-4.249180},
{"zone":"DJUMA","area":"MIKWI SECT","village":"MAMPUNGU","lon":18.312750,"lat":-4.267580},
{"zone":"DJUMA","area":"MIKWI SECT","village":"MUNENZO","lon":18.335000,"lat":-4.232490},
{"zone":"DJUMA","area":"MIKWI SECT","village":"NSIO","lon":18.379510,"lat":-4.248320},
{"zone":"DJUMA","area":"MIKWI","village":"BIKWIRI","lon":18.132490,"lat":-4.288180},
{"zone":"DJUMA","area":"MIKWI","village":"CAMP CKE","lon":18.348820,"lat":-4.240260},
{"zone":"DJUMA","area":"MIKWI","village":"DJOMO","lon":18.306330,"lat":-4.248320},
{"zone":"DJUMA","area":"MIKWI","village":"KIMOLO I","lon":18.328580,"lat":-4.273150},
{"zone":"DJUMA","area":"MIKWI","village":"KIMOLO II","lon":18.328580,"lat":-4.268010},
{"zone":"DJUMA","area":"MIKWI","village":"MIKWI","lon":18.333330,"lat":-4.250000},
{"zone":"DJUMA","area":"MIKWI","village":"MOTERENSIENE","lon":18.216670,"lat":-4.216670},
{"zone":"DJUMA","area":"MIKWI","village":"MPATA","lon":18.306760,"lat":-4.239340},
{"zone":"DJUMA","area":"MIKWI","village":"MPUBU","lon":18.745710,"lat":-4.060900},
{"zone":"DJUMA","area":"MIKWI","village":"MPWONO","lon":18.306330,"lat":-4.276140},
{"zone":"DJUMA","area":"MILUNDU (D1)","village":"MPULU","lon":18.542210,"lat":-4.131500},
{"zone":"DJUMA","area":"MILUNDU (D1)","village":"MPULU","lon":18.550220,"lat":-4.127490},
{"zone":"DJUMA","area":"MOAKA (D1)","village":"BWANIANGI","lon":18.550011,"lat":-4.293230},
{"zone":"DJUMA","area":"MOAKA (D2)","village":"BEYA MISSION CATHOLIQUE","lon":18.580220,"lat":-4.354460},
{"zone":"DJUMA","area":"MOAKA (D2)","village":"Ferme NZOKIA","lon":18.583650,"lat":-4.348040},
{"zone":"DJUMA","area":"MOAKA (D2)","village":"LONGO MUBINI","lon":18.584930,"lat":-4.410090},